id,name_pl,lon,lat
423,Dębno,20.71895,49.95904
498,Lipnica Wielka,19.62836,49.48472
679,Grudusk,20.62545,53.05881
828,Wyszogród,20.19201,52.38748
1068,Regnów,20.39088,51.74762
1187,Pieszyce,16.58306,50.71119
2395,Kędzierzyn-Koźle,18.12836,50.31475
2498,Dąbrowa Biskupia,18.53387,52.77645
3576,Trzebnica,17.08393,51.32318
3935,Wydrna,22.14397,49.70893
4449,Mieroszów,16.18657,50.66637
6851,Jaźwiny,19.40778,50.81748
11052,Stary Majdan,23.49105,50.90722
11239,Alojzów,23.55388,50.98946
11697,Kościno,14.37908,53.42348
11760,Motarzewo,16.37325,53.49708
13097,Brzeźnica,16.88699,53.89304
13179,Lewiczyn,20.86175,51.79938
13396,Smyczyna,16.49461,51.92386
15248,Jasienica,21.40462,52.41346
15301,Konotopa,20.82139,52.19701
15753,Patrzyków,19.01056,51.07134
16460,Gradki,20.56154,53.92408
19453,Sowia Wola,20.63718,52.35811
19717,Wrzosowo,14.81297,54.01476
19754,Wisła Mała,18.79407,49.93831
20240,Ludów Śląski,17.02698,50.84865
20273,Dąbrówka,17.60277,53.57614
20687,Sielachowskie,23.13536,53.18134
21277,Gołaszew,20.72885,52.20884
21313,Siedlin,20.40200,52.60843
23392,Rozewie,18.34710,54.81974
23534,Borek,18.14199,51.69277
23882,Błędowa Zgłobieńska,21.83744,50.03976
24284,Pańki,22.87691,53.12951
24610,Zamęcie,16.70789,53.63761
24793,Praca,19.57277,51.42470
24819,Wierzbie,17.59264,50.52811
24893,Adamowo,19.89554,52.91074
25391,Ligota Wielka,16.78811,50.75858
25659,Wadochowice,17.02165,50.67646
25723,Pień,18.21324,53.18142
25819,Kąty,18.92145,52.63647
26140,Police Mostowe,18.65169,52.12987
26183,Urzuty,15.41267,51.79294
26388,Kąty,17.51902,52.02476
26602,Strzeszewo,19.88552,52.98941
26653,Karpinek,15.68615,53.16326
26699,Wronów,22.03990,51.45519
26744,Dobrowoda,22.99732,53.03867
27000,Zieleniec,21.11890,53.42401
27752,Zażelazna,22.19929,52.01952
28140,Lutcza,21.90844,49.80271
28338,Rudaw,19.00538,53.03694
28385,Mołstowo,15.34740,53.98740
28505,Gołąb,23.14921,51.11959
28510,Starbienino,17.94790,54.74980
28784,Zagaj,18.68598,51.92262
29237,Zajma,23.44563,53.10290
29455,Czumów,23.96731,50.77158
29553,Chruszczyna Mała,20.46222,50.23681
29810,Świętoszyn,17.23061,51.52513
30457,Kuźnica Stara,18.71259,50.89904
30602,Niemcowa,20.67100,49.44816
30778,Lechanice,21.10505,51.74792
31027,Napiórki Ciężkie,21.39333,52.82791
31120,Radoszewo,18.27290,54.76914
31143,Henrykowice,17.45113,51.51653
31144,Podmiejska Wola,19.98753,50.36979
31150,Wielodróż,21.01286,52.94675
31570,Wodziczna,18.02489,51.14757
32196,Granica,19.19717,49.92018
32581,Zadziory,21.05683,53.19232
32775,Niebrów,19.96926,51.53953
32974,Dębowa Góra,20.48368,51.55866
33101,Morgi,19.26463,51.57771
33205,Żabinka,21.99450,54.12835
33940,Gołuń,17.98939,54.01731
34037,Rybno,16.45423,50.58647
34333,Szum,17.77735,51.04082
34342,Siekierowizna,18.66639,50.85120
34624,Psary Polskie,17.54041,52.34476
34647,Postawelek,23.05805,54.28841
34678,Mietel,20.97824,50.41832
36155,Adamierz,20.89981,50.20466
36312,Bródki,16.33960,52.43397
36542,Mszadla,19.90721,51.90153
36669,Podła Góra,15.35331,52.12952
36775,Niwiska Dolne,18.96192,51.09146
37119,Radłówek,18.17229,52.83238
38715,Rabinowo,18.75632,52.51852
39038,Witobel,16.70400,52.26830
39100,Drzewoszki Wielkie,19.56945,52.23335
39584,Książęcy Las,16.58409,51.80476
40047,Lisia Miedza,14.50102,52.93569
40129,Gęsikowo,20.95844,53.88838
40614,Słubica A,20.61761,52.01041
40698,Stare Prusy,18.05500,53.84960
40793,Jamno,19.90103,52.05836
40805,Pawłowo Kościelne,20.71306,53.07100
41018,Kamionka Dolna,22.32009,50.42415
41142,Dziewierzewo,17.52272,52.94474
41207,Zarzecze,19.69355,50.36113
41280,Siutkowo,18.88083,52.77604
41790,Osiek-Wólka,20.89329,52.77721
42068,Nowy Jasieniec Iłżecki,21.21004,51.11817
42106,Bobino-Grzybki,21.04420,53.04695
42734,Lucjanów,21.59853,51.13607
43058,Mielno Pyrzyckie,14.77604,53.09259
43189,Siąszyce,18.17113,52.04025
43755,Łaszewo,15.55536,53.15851
44288,Nowe Strzałki,20.40965,51.65776
44414,Krajno Pierwsze,20.84987,50.89218
44526,Cienia,18.48447,51.60239
44538,Majdan,21.77709,52.56156
44546,Trzebórz,14.79057,53.07050
44802,Bedlenko,20.31007,51.19756
44869,Pachuczyn,22.00634,53.41056
44882,Danków A,18.10572,52.38763
44925,Marynki,18.79017,52.31061
45818,Mały Bukowiec,18.29089,53.87698
45848,Przybiernówko,15.13548,53.95250
46161,Pilipki,23.15330,52.72678
46861,Jabłonka Kościelna,22.36910,52.95096
46954,Szymany-Kolonie,22.52753,53.65109
46972,Pisanica,22.58101,53.82252
47129,Kietlin,16.83273,50.74482
48065,Korczyna,21.25101,49.71387
48623,Pruszanka Mała,22.67181,52.88252
48830,Bagienko,21.53972,52.69194
50182,Wolany,18.41721,52.68932
50481,Sobowice,20.45793,50.55715
51272,Strzegocin,20.78868,52.67244
52173,Smogorzów Wielki,16.66313,51.43302
52397,Brzozowica Duża,22.62281,51.95068
52452,Wola Wodyńska,22.02245,52.03675
52873,Potok-Stany,22.22260,50.81337
52903,Zalesie,22.85808,51.23660
53530,Kiszewy,18.31617,52.10979
54239,Duranów,21.62909,50.96333
54374,Zwrócona,16.80943,50.61951
54490,Mokre,23.20429,50.69157
54953,Sarnowo,20.66012,54.12117
54984,Pluty,14.92750,52.90694
55001,Klukowszczyzna,22.97701,52.14958
55410,Rosówek,14.42368,53.32326
55973,Poćwiardówka,19.72507,51.87052
56362,Źródelnia,18.01430,51.37446
56500,Pieniążki,22.51263,53.52819
56631,Dworaki-Staśki,22.75345,52.95161
57004,Kreślina,19.97100,50.62765
57612,Otręba,19.44217,53.42474
58344,Marcjanka,20.10344,52.40789
58380,Demblin,20.73742,50.21009
58884,Chrząchówek,22.12833,51.42175
59039,Nowe Dobra,18.38291,53.43758
59743,Pokrzywno,17.75167,53.83321
59817,Rudołtowice,19.00724,49.95798
60061,Ruda Godowska,22.07168,51.13988
60482,Kamień,17.63997,52.03958
60652,Gózd,21.74727,51.97213
61033,Głudna,20.72601,51.80999
61533,Zaborowo,20.26769,52.53508
62061,Hostynne,23.70737,50.74573
62320,Mieczniki,22.01277,54.23757
62430,Konopki-Jałbrzyków Stok,22.25856,53.03495
62631,Rogawica,17.16461,54.51633
62718,Wola Duża,22.79190,50.57375
62875,Korytyba,18.68778,53.96583
62912,Olszewka,17.69243,53.43466
63160,Bartków,22.56634,52.33306
63216,Szczytno,19.87724,52.55722
63431,Jaczowice,17.58076,50.61462
63658,Goszcz,17.48214,51.39623
63907,Waplewo,20.75646,53.59277
64184,Kozły,17.86523,51.48005
64513,Dębnica,16.93256,51.38618
65074,Popielarze,17.88333,52.45000
65121,Brogowa,20.64810,51.42047
65403,Szopa,17.97570,54.36080
65541,Stary Białynin,20.25254,52.18366
65661,Solistówka,22.76001,53.75645
66071,Napraty,20.70155,54.15242
66211,Tolkmity,20.31215,53.65495
66900,Różynka,20.32668,53.90613
67446,Krasne-Elżbiecin,20.99573,52.89766
67576,Moniochy,21.30989,51.64170
67871,Ogardy,15.58095,52.96761
67970,Skrajnia,18.02371,51.87794
72797,Kierkut,20.58602,51.48325
72822,Gościszka-Baraki,19.96492,53.12704
73092,Ćwikielnia,20.40167,53.64139
74118,Tomaszew,18.98856,51.74835
279,Powidz,17.92118,52.41360
776,Nasielsk,20.81004,52.58396
835,Naruszewo,20.35724,52.52585
1045,Wolbórz,19.83468,51.49913
1361,Gaszowice,17.58448,51.25842
1785,Cieszyn,18.66228,49.71830
2108,Kołbaskowo,14.43938,53.33699
2433,Ozimek,18.22295,50.67997
2968,Nowogród,21.88151,53.22678
4318,Porąbka Uszewska,20.69069,49.94240
5596,Musuły,20.65632,52.04343
5701,Dziwiszów,15.79688,50.94095
6650,Łosino,17.00833,54.41305
6800,Sianowo,18.08990,54.38793
7810,Dąbki,16.31664,54.37873
7897,Płazowo,17.94493,53.53314
7973,Nowy Jasiniec,18.03399,53.34875
8162,Kotliszowice,18.55758,50.46854
9686,Hulskie,22.53227,49.23807
10216,Chocieszów,16.48338,50.45544
12518,Ochodze,17.81228,50.61008
12633,Grabówka,22.13884,49.65682
13289,Rychówko,15.87794,53.93206
14211,Biskupice,20.12468,49.96061
14300,Królewska Wola,17.56212,51.39239
16022,Włóki,18.20757,53.24597
16441,Kręsk,20.36531,53.69875
17189,Ługi Ujskie,16.70073,53.07815
18331,Ruszelczyce,22.51896,49.81118
20153,Więckowice,20.81357,49.94657
20155,Piekary,19.16178,51.18219
20348,Brunów,16.06963,51.39750
20572,Borowiny,20.10417,52.02233
20695,Modlimowo,15.09369,53.97529
21104,Mokry Dwór,17.12099,51.07205
21238,Orle,18.98645,53.48531
21652,Gościeszowice,15.66179,51.61069
21894,Wtórek,17.89023,51.63815
22482,Nowe Kęszyce,20.13871,52.14285
23785,Kościuszki,15.03598,53.65371
23815,Domatówko,18.21154,54.68710
23962,Praslity,20.34679,54.01997
24200,Jagiełek,20.29526,53.61171
24467,Budzisław,20.11282,50.98864
24497,Gajówka Trzcianka,21.57889,52.65139
24766,Rydzów,21.36864,50.24251
24955,Fryszerka,19.70720,50.92785
25104,Grabina Wola,19.60712,51.56977
25547,Radźki,23.44770,52.83743
25667,Radziszewo,21.88563,54.21360
25992,Kamionka,19.49974,53.61522
26270,Klępino,15.03107,53.37005
26309,Lipniaki,22.58818,51.89598
27003,Grabowiec,23.04382,52.75262
27012,Radziwiłka,20.18908,52.33561
27040,Mroczków-Kapturów,20.71456,51.14314
27271,Kuryły,23.66230,53.01670
27576,Strzelec,16.01390,54.07436
27581,Głębokie,21.91497,49.54653
27706,Podłużyce,18.70159,52.05147
27748,Stężyca-Kolonia,23.12539,51.02361
27787,Kącik,19.38770,51.43013
27934,Imiołki,17.38425,52.56135
27999,Walentynów,18.85307,51.81942
28093,Magdalenowo,23.10585,54.07335
28320,Kościeszki,18.32051,52.56895
28532,Poladowo,16.48202,52.01138
28562,Andrzejów,19.04306,51.29803
28648,Wełna,16.91262,52.72545
28952,Młyniska,16.49056,54.08216
28985,Morze,22.74173,52.51554
29074,Cielemęc,22.42773,52.13856
29157,Kierzki,22.11492,54.19553
29252,Podzamek,16.73730,50.43098
29362,Ostrów,18.76263,50.73259
29482,Słępy,21.10810,54.21353
29614,Malanówko,19.47390,52.79616
29878,Olimpia,18.57676,52.12673
30273,Osowo,22.26556,54.22361
31307,Ruda Strawczyńska,20.37791,50.94311
31660,Piaski Małe,14.59678,53.66331
31790,Stębark,20.10794,53.52815
32389,Władysławowo,19.32943,54.15200
32410,Białobrzeg Dalszy,21.45047,53.11114
32531,Dębowiec,19.16657,50.71311
32534,Więcław,15.77182,53.68462
32950,Szyleny,19.87026,54.33875
33094,Lipina,23.90898,50.46974
33246,Dąbrowa,22.10395,52.40861
33256,Wąsosz,17.06561,53.31299
33618,Kajnity,20.07072,54.22660
34491,Michalków,23.64672,52.05019
34734,Miłosławice,17.36044,52.71008
34793,Budziska,21.66977,52.53810
34829,Śluza Krostkowo,17.22639,53.08274
35086,Chrostowa,19.55440,50.99648
35116,Koszewko,14.90438,53.28792
35280,Sosnówka,21.98218,51.74044
35343,Zalesie Krasieńskie,23.18067,51.11775
35632,Drzonowo,16.17514,53.04432
35942,Kołacze,23.33490,51.46957
36025,Jezioro,19.38722,54.07300
36123,Moskorzyn,16.08786,51.54214
36284,Srock,19.62974,51.52962
36586,Stelmachowo-Kolonia,22.73922,53.14528
36661,Stare Łysogórki,14.28952,52.78528
37185,Opatkowice,21.88166,51.45068
37852,Zdziar-Las,20.01432,52.61130
37965,Jeziernik,18.98790,54.20972
38447,Bierzewice,19.49030,52.44673
38757,Ocieść,20.78682,51.53202
38935,Wojkowo,14.92610,52.15549
39370,Grabowa,18.64206,51.07070
39521,Stary Widok,19.68723,51.01858
39705,Sajdy,21.46720,51.23770
39974,Białkowo,19.84030,52.54848
40246,Nowy Dwór,20.11451,50.88309
40318,Nowe Okniny,22.33889,52.00785
40662,Wróbel,22.06247,54.24064
41129,Jeziorko,18.86907,51.49683
41608,Brześnica,17.14228,51.95692
41669,Twarda,20.03057,51.45484
41700,Grabnik,23.23063,50.57019
42514,Młody Niedróż,19.99638,52.78601
42881,Górki,20.71440,51.12443
42998,Niedów,14.98990,51.03984
43006,Stare Kozłowice,20.41554,52.08031
43164,Staniew,17.42199,51.82550
43278,Marianów,19.65987,52.03809
43279,Zdunków,21.80045,51.45672
43552,Żywa Woda,22.88611,54.16948
43997,Zawory,17.15731,52.06390
44204,Zalesie,22.96655,53.25608
44966,Trojanowice,20.16627,51.25935
45669,Babiak,19.03592,53.04112
45789,Kluczkowice,21.93962,51.08544
45837,Witówko,20.87576,53.53574
46071,Kornie,23.60444,50.30798
46211,Harklowa,20.16989,49.47339
46269,Ostrowąs,16.05458,53.75416
46302,Chrzanowice,18.43639,51.64091
46330,Żytowo,19.79949,52.81735
46700,Kowalskie Błota,17.98078,53.63245
46789,Warszewka,20.03264,52.70284
47311,Osieki Lęborskie,17.89713,54.77129
47332,Aleksandrów k. Wąsosza,19.76551,50.78059
47972,Psary Stare,19.77258,51.49656
48604,Łazy Duże,22.66233,53.21300
48731,Natolin,22.30702,52.65201
49336,Koleśniki,22.71993,53.85513
49760,Białuty,20.39720,53.21253
50058,Ględy,19.40970,53.88634
50372,Gdakowo,19.16202,53.82022
50537,Jordanki,19.18429,53.98493
50690,Zaróg,19.80771,50.81900
50882,Wojtyniów,20.76858,51.09893
51083,Huta Przedborska,21.71973,50.18363
51512,Komierowo,17.65408,53.45257
51572,Lutomierzyn,20.19344,52.72160
51638,Kałek,18.40415,52.15559
51781,Emilianów,19.99302,52.31123
52001,Gałdowo,19.40444,53.62083
52520,Warzymowo,18.38684,52.45940
52728,Salamony,18.36220,51.50871
52771,Popielewo-Folwark,18.29290,52.45889
52964,Gorzyczany,21.60871,50.63541
53335,Lgota Wielka,19.83136,50.36554
54038,Kępsko,16.71740,53.98998
54055,Obórki,21.00789,53.09041
54064,Ciężkowo,17.64660,52.94282
55121,Gałkowice Nowe,19.44906,51.24228
55166,Kajdas,18.79369,51.25094
55417,Cegielnia,17.74030,52.66731
55493,Andzin,20.68042,52.58540
56212,Rościce,15.01520,51.59949
56215,Graboszewo,17.75802,52.27239
56562,Królowy Most,23.47530,53.13985
56751,Chudzice,17.36873,52.22534
56796,Nowe Prażuchy,18.31798,51.90452
56880,Chrosna,21.46098,52.03684
57530,Leszczków,21.47227,50.75334
57592,Zrąb,23.33075,50.81477
58808,Malęcino,16.86319,54.04575
58835,Wolice,17.91212,52.85135
58842,Dyniska,23.71351,50.41172
59158,Bochlin,15.05689,53.74328
59281,Borek,15.38656,52.68839
59324,Kozowo,16.54697,51.48689
59830,Wojsławice,18.92597,51.65331
59976,Kordowo,21.51106,53.04637
60111,Dworaki-Pikaty,22.74408,52.94837
60395,Krzewina,16.09619,52.17980
60942,Gawin,18.95914,52.42498
61042,Wieprzów Ordynacki,23.45742,50.49523
61047,Kamienna Wola,20.52112,51.52007
61665,Wygonowo,23.02250,52.59147
61863,Cieloszka,21.69244,53.38576
61928,Lisnowo-Zamek,19.19372,53.46437
62027,Strzygowska Kolonia,18.97638,52.39853
63033,Skwierczyn-Dwór,22.43712,52.32844
63093,Gieski,19.57425,51.27811
63145,Krzewica,22.67766,52.06118
63221,Pruski,20.32575,53.19919
63575,Grzybno,14.56456,53.01826
63608,Warglewo,20.16494,53.58541
63906,Janowice,21.85110,51.31300
64148,Zgierzynka,16.24091,52.46553
64189,Przejma,19.99673,52.34070
64198,Dąbrowa Widawska,18.89390,51.43391
64281,Helenowo Nowe,21.01273,52.97621
64401,Wola Jachowa,20.85999,50.84495
64817,Siewiersk,18.97407,52.49835
64989,Nochowo,16.98176,52.06964
65174,Chałupa,17.68750,54.26295
65191,Bachmatówka,23.38793,53.38596
65222,Toczeń,16.88686,53.99672
65464,Rejczuchy,20.71364,53.81064
65784,Porzecze,16.40345,54.37961
66915,Szwaruny,20.81274,54.20737
67022,Laskowa,16.83442,51.55781
67033,Budachów-Kolonia,15.07081,52.15998
67165,Miasteczko,21.33439,51.28217
67447,Zapole,19.17502,51.00815
67657,Wólka Grodziska,22.39974,50.18952
72996,Zawoje,21.90160,49.48760
73124,Wólka Lichtajńska,20.02821,53.66320
577,Wiślica,20.67511,50.34821
606,Pierzchnica,20.75601,50.69655
624,Sadowie,21.37070,50.85180
1061,Masłowice,19.78966,51.10271
1130,Głogoczów,19.93828,49.84226
1560,Chłopice,22.67682,49.94626
1608,Czermin,21.33440,50.33889
1662,Zaklików,22.10223,50.75567
2033,Lubichowo,18.40397,53.85025
2245,Mierzęcice,19.12516,50.44358
2404,Strzeleczki,17.87229,50.44874
2557,Lubień Kujawski,19.16602,52.40521
2642,Jasień,15.01667,51.75000
3048,Wola Zgłobieńska,21.82185,50.00378
3274,Jakubowice,19.92545,50.94627
4390,Nowa Jastrząbka,21.16459,50.12089
10822,Zagaje,15.97964,54.23468
11365,Milsko,15.77387,51.94387
11745,Gruszewo,15.95914,53.94734
14045,Radwan,21.04148,50.25456
14653,Dziekanowice,20.10055,49.90217
14682,Miłkowice,18.65981,51.83280
17310,Niwiska,15.39080,51.81815
17740,Maliniak,19.96732,53.92290
18828,Mąchocice Kapitulne,20.77403,50.89572
19112,Smarzykowo,17.62740,52.94676
20252,Bierówka,21.57844,49.77094
21247,Stare Marzy,18.67381,53.47797
21934,Trzęsacz,14.99333,54.07718
22264,Barnisław,14.41039,53.36441
22770,Ostrówek,19.03652,51.59085
23401,Lubuczewo,17.03104,54.49588
23914,Raczyn,18.53789,51.25986
24430,Pietkowo Drugie,22.88360,52.89725
24520,Wiktorówek,18.38311,51.30750
24633,Wołyńskie,20.01154,52.33926
25677,Liśnik Duży,22.06970,50.88783
25784,Chrustowo,18.94612,52.37894
25829,Gubiny,18.92908,53.56168
26199,Hieronimów,21.54587,51.06754
26400,Czajcze,17.01958,53.28701
26425,Kosiorów,21.88561,51.11220
26916,Tulewo Górne,21.45042,52.59318
26921,Czerniejew,22.08030,52.12084
27097,Popowo,16.47779,53.17417
27287,Wólka Łabuńska,23.38551,50.63563
28078,Wodziany,19.75940,53.84738
28647,Rożnowo,20.04206,54.03120
29104,Skrobek,16.60944,53.13222
29279,Role,22.42016,51.97445
29366,Nowy Stanin,22.16054,51.84787
29447,Sulimy,22.08576,53.65599
29488,Strzyżyno,17.37293,54.49066
29682,Zabruzdy-Kolonia,21.85104,51.89957
29827,Długi Bród,23.53600,52.62359
30229,Wola Wąkopna,21.01794,50.72301
30476,Koliszowy,20.22949,51.17713
30537,Jackowskie,18.66361,51.33326
30854,Weklice,19.57745,54.11720
30971,Zatyle,23.49333,50.35848
31640,Zalesice-Leśniczówka,19.49455,50.77675
32214,Małociechowo,18.27187,53.34546
32272,Osiecza Druga,18.10589,52.18234
32344,Stare Truskolasy,22.69003,53.03717
32964,Myśligoszcz,17.30328,53.56822
33192,Łagówek,15.31581,52.34857
33354,Jednaczewo,22.00997,53.22012
33963,Żulin,21.88170,52.49114
34166,Połchowo,15.53011,53.53631
34329,Bania,20.20806,51.00250
34499,Piecewo,19.16291,53.38025
34536,Lejławki Małe,20.08194,54.14461
34640,Ugoda-Niemierzyn,18.55414,51.36083
34710,Sława,15.90110,53.78009
34796,Lubomin,18.83521,52.45133
35010,Głogno,21.21581,53.75720
35108,Pułkowice,19.03461,53.85761
35162,Kobylaki-Konopki,20.93174,53.12716
35419,Gierwaty,21.60042,52.97779
35595,Borowiec Pierwszy,20.94857,51.47304
35597,Osiny,21.36847,52.75514
35704,Stara Grzybowszczyzna,23.70418,53.20898
35903,Gęsie Góry,21.31649,54.24103
36038,Skarżyn-Kolonia,18.43189,51.90268
36133,Nowaszyce,17.58025,52.64478
36566,Tywonia,22.62805,50.02132
37085,Kistowo,17.75032,54.26711
37558,Nowiny,19.78004,51.60651
37700,Stare Bulkowo,20.97686,52.68538
38438,Łysakowo,20.31642,53.35626
38722,Sterławki Średnie,21.61462,54.00908
38986,Błaziny Górne,21.24990,51.13770
39135,Nowy Młyn,14.76141,52.33544
39159,Pogorzeliska,15.92087,51.46653
39383,Dobrogostowo,16.50696,52.67260
39867,Chełchy,21.33514,53.01254
40428,Wąsówko,16.22608,52.38137
40618,Nosy-Poniatki,20.65746,51.91664
41659,Zacisze,15.72485,53.21713
41694,Choszczewka,21.02887,52.98145
41909,Zabłocie Kozłowskie,20.23244,53.31199
42623,Korytów A,20.46827,52.03658
42726,Boży Dar,21.57513,51.14991
42976,Borzęcin,20.63241,51.75789
43108,Krotoszyn,18.76426,52.67807
43207,Psalmo,18.26417,54.44528
43451,Bródzki,18.38446,52.66943
44352,Lusiny,20.86982,54.20415
45268,Rączki,20.33136,53.40812
45376,Sułowo,20.83097,54.09584
46103,Gładysze,19.92496,54.15687
47031,Wólka Zabłocka,22.73490,51.46700
47095,Dukt,20.38695,52.83787
47231,Janówek Duranowski,20.24044,52.20181
47791,Skrzypki Małe,23.03841,52.72361
48511,Adamów,19.91480,51.44615
48630,Budy Piaseczne,19.94121,52.84965
48641,Żdżarka,23.43371,51.46771
48842,Bryki,22.47808,52.88759
48848,Kolonia Ostoja,19.30356,51.44613
48852,Lipki Małe,15.55077,52.76284
48987,Ciosny,19.40125,51.92229
49038,Sebastianowo,17.25444,52.02760
49520,Brunswałd,18.34285,53.85892
49759,Ojrzanów-Towarzystwo,20.71472,52.01153
50321,Cierpigórz,20.87827,52.98400
50527,Biała,19.87168,51.29840
50648,Gaj,16.77999,50.42040
50657,Piotrów,20.99150,51.71375
51224,Sarzyna,22.34546,50.34880
51554,Zawały,21.35701,51.08303
51933,Mostki-Kolonia,18.64748,52.35251
52101,Zabrodzie,15.35572,53.52238
52621,Komorówko,14.83337,53.25610
52887,Majdan,21.07173,51.68864
53306,Dębienica,21.65057,52.73006
53501,Piskorzyna,16.63549,51.49866
53764,Godlewo-Kolonia,22.37827,52.81477
53851,Łobódź,19.26953,51.83112
54053,Świerczyna,16.62105,54.15541
54086,Wandalin,23.06036,52.59838
54448,Rubcowo,23.45242,53.81120
55330,Pilichy,19.10646,52.11290
55429,Steblów,18.17460,50.25665
55629,Górzno,17.83716,51.74540
56395,Korolówka-Osada,23.49884,51.58122
56482,Szymanówka,19.45528,52.24159
56936,Smolniki Powidzkie,17.99047,52.45525
57100,Barwałd Średni,19.59681,49.86468
57457,Ośrodek,23.23151,53.37077
57810,Zdziechowa,17.55818,52.59026
57840,Kokocko,18.32542,53.26333
58775,Trzeboś,22.14822,50.20350
59327,Olbrachtowice,16.83163,50.94819
59409,Kowale,16.64207,51.93707
59751,Kapustowo,18.95553,54.04895
60343,Grodzisk Duży,21.73459,52.96203
60734,Pace,22.93369,52.70586
60798,Markuszewo,20.03072,53.79016
61270,Koźlice,16.23450,51.45173
61306,Milanów,21.05316,51.88748
61570,Niedysz,15.03906,54.01583
61818,Suchy Las,14.98136,53.70616
61956,Mieczki-Abramy,21.85572,53.00754
62213,Zwierzyniec Wielki,23.20073,53.66293
62610,Zwola Poduchowna,21.87900,51.86946
62895,Berżniki,23.47217,54.08038
63241,Mariankowo,16.04197,52.22024
63341,Pomianów Górny,16.95597,50.50080
63392,Marulewy,18.29672,52.79009
63406,Miszewo Wielkie,20.60040,52.63660
63540,Będziechów,18.44888,51.88051
63569,Gołasze-Puszcza,22.48912,52.95540
64078,Grudów,20.69234,52.13608
64510,Mąkolno,18.57442,52.35113
64775,Mieduniszki Wielkie,21.98306,54.32039
64906,Leginy,20.83792,54.29208
65215,Bojanów,18.16342,50.03033
65274,Trębaczew,20.58810,51.70626
65405,Żodyń,15.99218,52.11628
65417,Darżynko,17.48973,54.45305
65418,Stary Barcik,19.83474,52.37919
65690,Stare Siedlisko,19.81324,54.21742
66349,Kaliszki,22.01190,53.61709
67058,Kwiatków,17.90136,51.70603
67229,Taciewo,22.79210,54.14810
67232,Uścieniec-Kolonia,21.49174,51.81600
67293,Langanki,21.40301,54.00642
67367,Nowiniki,23.24710,54.20819
67776,Miechowice,18.83435,52.63378
68284,Czastary-Stacja,18.33231,51.27028
68342,Straszewo,15.95626,52.85735
68386,Galiny Duże,20.59391,51.84165
73012,Sępopolski Dwór,20.99800,54.30059
73062,Las Hulaski,20.68579,51.60130
107,Zabierzów,19.80253,50.11420
534,Ciężkowice,20.97665,49.78497
551,Kościelisko,19.88879,49.29076
638,Sandomierz,21.75749,50.67605
1035,Aleksandrów,19.98209,51.26759
1643,Chmielnik,22.14753,49.97471
2123,Kobylanka,14.87643,53.35706
2174,Banie Mazurskie,22.04535,54.24490
2281,Kamienica Polska,19.15319,50.68358
3010,Kulesze Kościelne,22.51629,53.01698
5121,Czarny Młyn,18.29770,54.80776
8931,Strzeniówka,20.79720,52.11865
9466,Płonina,16.00477,50.90412
10139,Wójtowo,20.60062,53.78881
10623,Drzewiany,16.68748,53.99222
12860,Rydzewo,15.82656,53.61418
13047,Wąsosz,17.73388,52.94775
13062,Michrów,20.79451,51.93675
14862,Zazdrość,20.45492,52.01655
15124,Kleosin,23.11793,53.09688
15340,Sławutówko,18.36580,54.66189
16601,Krakuszowice,20.22496,49.94603
20469,Antoniew,19.34636,51.78942
20565,Mąkowarsko,17.81385,53.40608
20865,Czerna,15.35724,51.22317
21530,Tarnawa,20.29655,49.85907
22018,Stanisławowo,23.20511,53.07781
22167,Tyłowo,18.12618,54.71341
23252,Niemysłów,18.81697,51.86774
23836,Tarnawce,22.68336,49.79068
24235,Anielin,21.91982,50.93131
24478,Zaścianki k. Bogusz,23.52562,53.37044
24961,Podlesie,20.99627,50.53963
25019,Godziszów,18.75973,49.76007
25484,Gryzikamień,21.25035,50.70399
25572,Witkowo,20.13320,52.76757
25806,Gruda,19.85758,53.62320
25889,Sypin,19.44917,52.01893
25979,Borowina,21.88493,51.51627
26025,Żelazo,18.32457,51.39097
26775,Borowina,17.56983,51.66977
26804,Dziedzinek,17.75372,53.38915
26914,Noskowo,16.81677,54.38943
26942,Goszczyna,17.19292,50.86717
27015,Kocerany,20.82432,51.93807
27230,Kępa,19.36177,51.42722
27289,Kolonia Bobrowska Wola,19.88366,50.97170
27733,Motycz Leśny,22.35292,51.24141
27742,Cekanów,19.99634,51.57578
27879,Jeżewice,17.99079,52.97082
27995,Wolkowo,16.64254,51.92395
28297,Sydzyna,21.17203,50.46611
29298,Dąbrowiec,19.90291,50.39856
29357,Zapceń,17.47850,53.99296
29476,Grabnik,21.39452,53.08982
29674,Dziupla,16.50308,53.91182
29730,Spaliny Wielkie,21.48246,53.48418
29893,Śladków Rozlazły,19.40513,52.01067
30451,Głusk,20.56220,52.40357
30735,Trzebieradz,14.96030,54.02154
30822,Józefowo,19.79801,54.38758
31002,Sieciechów,19.38377,52.25081
31269,Plewki,22.58726,54.12426
31982,Rutki Nowe,22.78423,53.84578
32615,Wilczyca,19.05675,51.84860
32764,Raków,19.71163,51.44774
33457,Wólka Dańkowska,20.72039,51.74369
33587,Liszna,22.24434,49.58698
33616,Hosznia Ordynacka,22.76212,50.74321
34304,Zagórze,15.87190,52.89487
34415,Ruskowo,20.77083,53.36555
34689,Opacz Mała,20.90558,52.16811
34749,Bronów,16.66475,51.64890
34763,Trojanów,21.85012,52.12385
35022,Będków-Kolonia,19.74743,51.59850
35089,Pnie,20.96096,51.71181
35600,Popielewo,14.41028,53.67584
35869,Stary Szwarocin,20.10189,52.22226
35935,Silpia Duża,19.78780,50.88279
35987,Jagodniki,23.49143,52.69667
36381,Sumina,18.41205,50.12046
37125,Zalesie,19.73265,53.29275
37146,Słup Drugi,21.72001,51.95605
37285,Stary Młyn,17.51610,53.75692
37607,Pniewki,16.69972,53.92139
37617,Bibianów,19.25329,51.95284
37987,Babskie Budy,20.27203,52.10501
38000,Chańki,23.08029,52.56444
38114,Rożental,19.76789,53.56596
38193,Trypucie,23.02529,53.07078
38632,Stare Słone,17.77202,54.04178
38685,Nowy Świat,18.48823,51.89882
40123,Latkowo,18.65836,52.63409
40796,Borzeń,20.13808,52.45215
40895,Lipnik,14.97170,53.34273
40974,Anonin,22.19823,51.89273
41147,Wierzchuca Nagórna,22.56287,52.47828
41924,Kozin,14.95587,52.85548
42017,Władysław,19.96106,50.27292
42117,Obice,20.60355,50.68139
42304,Łączkowice,19.86198,51.07027
42893,Mórkowo,16.53407,51.91055
44435,Nalikajmy,20.80216,54.29372
44485,Mikułowice,21.59665,50.85339
44641,Zawada,18.36127,54.00392
45390,Kopanina,22.63262,51.38397
45638,Socha-Kolonia,18.59918,51.73640
45739,Gobiaty,23.88522,53.10337
46155,Kuzawka,23.54630,52.11036
46377,Świątkowa Mała,21.44413,49.51657
46480,Kaleń,15.01299,53.97830
46684,Przyrownica,19.06399,51.76399
46832,Lipionka,18.43345,52.85214
46880,Smielice,17.29526,51.53363
46963,Strzelcowizna,23.31744,53.94056
47589,Rybaki,21.84752,51.22269
48090,Marianów-Kolonia,18.56457,51.90081
48203,Pierzchały,19.83813,54.29803
48244,Rapa,22.01941,54.32078
48288,Przylep,14.45922,53.41375
48325,Rzeżewo-Morzyce,19.11066,52.42269
48608,Zdzieci Stare,21.22976,50.42038
48694,Czerwony Bór,22.14524,53.05956
49274,Pudzików,19.54318,51.17831
50144,Pasieki,23.85254,52.88768
50345,Białobrzegi,22.97169,53.80234
50581,Kuniów,18.22641,50.94619
50717,Pęciszewko,16.40320,54.36838
50845,Antonów,18.65728,50.88028
51359,Granice,18.02283,51.17894
51550,Turobowice,20.46212,51.73826
51590,Łukowiec,21.63765,50.57178
51818,Kępinka,14.89099,53.42543
51943,Zofiówka,20.96226,50.82822
52160,Kobylnica,21.57141,51.65105
52209,Stanisław Dolny,19.66078,49.90189
52358,Sędławki,20.84127,54.23341
52628,Skała,17.23589,51.26052
52732,Czartek,19.57614,51.32268
53128,Sokół,21.71596,51.75469
53466,Wrzeście,17.65071,54.68842
53485,Tucze,15.35477,53.54850
53664,Sędziny,16.46035,52.41417
53798,Dąbie,19.13881,50.40874
53823,Stale,21.74283,50.55766
54662,Mierzęcin,17.98073,50.29596
54730,Augustówka,21.49339,51.98517
54870,Na Księżym Polu,20.00591,50.04405
55143,Morawy Wielkie,20.79243,53.11118
55772,Kukle,23.41732,54.04835
56610,Guzki,21.96151,53.54780
56618,Lipy,15.29050,52.87996
56669,Rydzynka,16.81196,53.49765
57070,Mikołajówka,23.11110,54.27752
57130,Elżbietków,17.22026,51.85255
57359,Rochówek,19.02452,52.19768
57368,Gołębie,22.82782,52.92752
57475,Przędzel,22.22693,50.48838
57560,Gębiny,20.29682,53.66463
57888,Gajęcki Ług,14.79578,53.37660
58397,Trzemienko,16.35932,53.68453
58914,Promnik,20.44703,51.64911
59283,Nowe Paprockie Holendry,18.38593,52.19006
59345,Żurawica,21.67560,50.69026
59525,Siemowo,16.89119,51.90309
59937,Gniewczyna Tryniecka,22.50808,50.11523
59964,Kresy,22.85308,53.74600
60308,Wikielec,19.79692,54.37509
60608,Boćwinka,22.15613,54.21783
60884,Skarydzew,18.16465,51.42549
61839,Annopol,23.89948,50.90814
62587,Sawice-Bronisze,22.49506,52.33149
62646,Wymysłów Kurzelowski,19.87957,50.89735
62653,Gnaty,19.69748,52.70177
62710,Opatowice,17.01460,50.87431
63385,Rudki,17.54590,52.19704
63409,Karoliny,23.05808,53.69372
63808,Olszak,21.07196,52.73379
64612,Zdziar Mały,20.02835,52.62756
64695,Czerwonka Szlachecka,21.24534,52.89404
64705,Przejma Mała,23.00209,54.22951
65275,Wierobie,23.80897,53.10263
65370,Danowo,22.11534,53.57936
65384,Boguszyniec,18.71335,52.23272
65534,Miłonice,19.17128,52.22218
65695,Bycz,18.59670,52.48287
65845,Łobżany,15.62407,53.66786
66186,Karszanek,18.47696,53.75346
66274,Jeziorzany,20.81859,51.96747
66396,Sochocino-Czyżewo,19.97639,52.57713
66836,Nowe Mosty,23.28524,51.66442
67011,Rąbierz-Kolonia,21.71853,52.31545
67110,Zawady-Huta,21.15193,52.98583
67134,Ciechanówek,19.04955,53.02844
67662,Niedrzaków,19.45329,52.33442
68271,Gęsin,15.70015,51.93145
68368,Stanisławów,19.86437,52.27678
76446,Słonki,15.12183,52.93956
341,Sośnie,17.63298,51.47223
382,Brudzew,18.60558,52.09951
526,Sucha Beskidzka,19.59471,49.74090
891,Gozdowo,19.68539,52.72452
1027,Działoszyn,18.86667,51.11666
1620,Rudnik nad Sanem,22.24396,50.44182
1623,Fredropol,22.74574,49.69594
2010,Sztutowo,19.18075,54.32797
6886,Kąpiel,17.51164,52.43993
7294,Pięćmorgi,18.52735,53.55936
9014,Chmielno,15.61200,51.14014
9050,Szczodrkowice,19.89795,50.19370
10286,Staniszów,15.73459,50.85133
10764,Pękanino,15.99151,54.02558
13056,Pierstnica,17.35819,51.42523
13185,Wawelno,17.76387,50.65450
13543,Karszew,18.88625,52.10710
14550,Niebieszczany,22.19980,49.55499
15627,Bydlino,16.97484,54.54001
16111,Małuszów,16.87550,51.01192
17710,Łęki Dukielskie,21.66912,49.60167
17713,Skrzyszów,21.55674,50.09255
18084,Ciosmy,22.55144,50.54362
18511,Dalborowice,17.71767,51.19724
18765,Janowo,18.55901,53.94034
18836,Marcinów,16.69176,50.38597
18857,Antoninów,20.91338,52.05983
19284,Trześnia,17.10664,50.83200
20124,Głębokie,18.88725,52.19370
21276,Pogroszew,20.74810,52.23046
21438,Moderówka,21.61675,49.75867
21491,Paprotno,20.80093,51.59715
21568,Łubna,21.12810,52.03332
21726,Sowlany,23.24530,53.15461
23280,Kasinka Mała,20.03578,49.70378
24576,Chwałowo,17.88804,52.68976
25079,Grodzki Młyn,21.19203,54.06748
25084,Wistka Szlachecka,19.28169,52.61762
25200,Ponikła,23.07322,53.23575
25599,Żmijowiska,23.19483,50.02553
25894,Jonnik,22.23625,51.84624
26048,Gładysz,15.84982,53.19099
26064,Komorowo,19.51740,53.19598
26392,Szewce,21.63477,50.63350
26539,Koziki,22.03970,53.09828
26824,Rzepinek,14.84821,52.32109
26926,Piątnica Poduchowna,22.09739,53.19531
27121,Worowo,17.07565,52.59702
27725,Mielżyn,17.77514,52.38268
27750,Nasy,20.88362,53.84253
27780,Płużnica Wielka,18.46893,50.47154
28225,Parzeń-Janówek,19.53227,52.65374
28678,Żabin Rybacki,22.04337,54.31855
28694,Wierzchowina,22.84401,50.84984
29020,Kościerza,16.40656,54.14955
29881,Podnowinka,22.99276,53.94926
30414,Karkówka,22.14670,50.79368
30470,Żerań Duży,21.49263,53.00856
30641,Sławatycze-Kolonia,23.53203,51.77737
30782,Suszów,23.93988,50.53579
30901,Trawy,21.73292,52.40956
31230,Gucin,20.10857,53.86054
31778,Choromany-Witnice,21.87092,52.97417
32258,Kolonia Rybacka,21.79230,54.18843
32270,Jeżów,21.20972,50.86463
32871,Byczyna,16.96508,54.05232
33613,Marianki,14.95542,52.59513
33981,Szówsko,22.68265,50.01617
34268,Kierzków,14.77495,52.99164
34780,Ignaców,20.65012,51.75966
35218,Cieszkowy,20.53494,50.32720
35424,Pilsko,19.32953,49.54532
35557,Załuskie Koronne,22.90350,52.78399
35873,Stare Łepki,22.64626,52.18868
36147,Klimkowicze,23.17790,52.54739
36216,Lisiec,19.39988,53.74801
36227,Kuczwały,18.64991,53.14855
36360,Krupy,22.13161,52.62732
36824,Luta,23.48482,51.46090
37200,Orłów,20.90744,51.24017
37273,Nowy Młyn,16.94757,52.76167
37459,Żyrwiny,23.11487,54.25700
37465,Suchcice,19.44306,51.42394
37741,Miklesz,18.63889,51.40656
38045,Gętomie,18.69583,53.86384
38347,Zamiechówka,19.84477,50.45868
38354,Sierczynek,15.78670,52.39953
38927,Michałówka,22.87686,49.94963
39453,Bekiesza,23.19614,51.30392
39788,Krzywowierzba-Kolonia,23.16946,51.58687
40194,Psary Witowskie,19.78312,51.49651
40223,Hucisko,21.68033,50.20190
40422,Dzierżążno Małe,16.23280,53.02420
40470,Jęcznik,20.89790,53.61068
40601,Podgórze,17.21882,54.10463
40816,Szołajdy,19.09227,52.24442
40987,Bobrowiec,19.87867,54.36641
41216,Gołoszyce,21.29315,50.79816
41253,Niemierzyn,18.61488,51.30470
42697,Sinki,18.73984,52.73574
43224,Krubice Stare,20.15759,52.53274
43313,Nowy Krasnosielc,21.14325,53.04069
43497,Lisy,22.15286,53.63439
44018,Tumusin,19.04857,51.86436
44113,Zmysłowo,17.23313,52.28634
44508,Morzyszów,16.69005,50.49766
44627,Pomiary,19.21262,51.13153
44678,Lipniki,22.84099,53.20169
44751,Norczak,19.54833,49.60472
45074,Purzec,22.28978,52.21445
45506,Turznice,18.80743,53.40516
45911,Pinino,18.61616,52.82438
46047,Szczepanowo,17.92438,52.82631
46130,Uniechowo,19.13038,52.68774
46382,Plechówka,20.50496,50.22832
46388,Lipienica,14.86973,52.49701
46819,Boguszówka,22.52371,49.70189
46936,Bukowno,15.57814,53.08731
46959,Pólko,22.55671,51.33255
47325,Tarnowiec,16.83122,53.34439
47423,Konstancin,19.35051,52.09146
47928,Kostki,22.18946,52.48507
47960,Chrościce,20.67199,52.76914
48038,Olszewka,21.05004,53.21307
48400,Uśmierz,24.06331,50.53840
48880,Boręty Pierwsze,18.84913,54.11568
49395,Lubiel,16.69794,51.56530
49598,Radziądz,16.96752,51.51163
49852,Brzezie,18.61183,52.38331
49970,Czarne,19.26066,52.78426
49991,Jurkowo,22.30923,53.96992
50206,Kamieniec,17.72755,54.41844
50666,Tomaszewo,16.22620,52.74316
50878,Pustki,17.99818,53.87268
51074,Brzozowo,18.42496,53.31401
51235,Dobre,19.24422,53.07201
51434,Grębocin,15.20893,53.84981
51696,Gizałki-Las,17.82963,52.04742
52164,Chojnik,17.70088,51.43914
52494,Osady Jerzmionckie,17.50630,53.59544
52529,Ostrów,20.88671,50.01523
52545,Zbigniewice,21.50387,50.61415
52937,Trzebciny,18.16169,53.63008
53061,Zieluń-Osada,19.86390,53.13725
53074,Ogrodzona,19.17855,52.20063
53152,Ciemny Las,18.51443,53.66260
53371,Przyborów,21.32504,50.03896
53387,Mścigniew,16.30138,51.89601
53902,Grzędy Górne,16.15667,50.72010
54145,Pęszyno,19.70669,52.68358
54594,Wólka Domaniowska,20.83966,51.41961
54636,Sosny,14.95526,52.71617
54900,Wiśniewo,22.29702,53.01180
55000,Góra,20.77667,52.44354
55096,Kraszyce,18.25506,52.64742
55111,Dorposz Szlachecki,18.43039,53.29007
55403,Koskowice,16.24810,51.18390
55464,Krzeszewo,16.87662,53.97923
55616,Tumidaj,18.64966,51.51785
55731,Stryjewo Małe,20.65620,53.00751
55794,Zagaje,17.12865,54.00604
55962,Bakus-Wanda,23.27327,51.29536
55993,Zwola,21.28255,50.84215
56378,Czerniejów,23.63055,51.08316
56699,Kierzkówka,22.43352,51.49076
57868,Jarosławice,20.92792,51.42036
58014,Węglewice,19.30088,52.12540
58025,Stawiszyn-Zwalewo,19.98833,52.98366
58253,Skoroszowice,16.97820,50.69674
59063,Dzierżysław,17.96896,50.04769
59576,Miętno,15.12047,53.71173
59811,Mątki,19.00353,53.85243
60064,Prakwice,19.38723,53.91228
60124,Wilczonek,22.02568,52.18474
60137,Łopiszewo,16.81625,52.81220
61148,Babsk,23.13013,51.42421
61221,Ryżki,22.32091,51.89940
61422,Różanka,23.53137,51.61654
61651,Grzymały,21.93210,53.19572
61737,Dęby Wolskie,18.93451,51.30373
62268,Sławiec Dworski,21.92211,53.18577
63032,Trynisze-Moszewo,22.43679,52.71637
63631,Czaje,22.70618,52.66200
63966,Lusajny,20.15310,53.86363
64327,Magdalenka,19.61906,51.30921
64560,Makowice,17.38455,50.56112
64935,Wójtostwo,21.57020,51.59582
65531,Jażyniec,16.00343,52.08046
66335,Soborzyce,19.61840,50.85795
66591,Krzyżówki,19.11971,52.79052
66907,Dolędzin,18.09844,50.16718
67321,Wysokie Dęby,14.97566,52.45106
67399,Kozice Górne,22.77079,51.11410
67862,Wieszyno,17.13259,54.45718
68381,Folwark,19.27998,51.26031
72873,Szczerbanówka,22.21975,49.21970
73050,Łąki,21.20789,51.20913
76475,Wejsuny-Leśniczówka,21.62106,53.68348
191,Zamość,23.26006,50.72105
244,Niechanowo,17.68413,52.46538
728,Wieliszew,20.96975,52.45100
839,Piastów,20.83997,52.18444
1896,Żelechów,20.73175,52.01406
2048,Linia,17.93673,54.45215
2285,Wielowieś,18.61870,50.50898
2541,Zławieś Wielka,18.32874,53.09588
3038,Hecznarowice,19.17037,49.90017
4004,Malczyce,16.49535,51.21905
5729,Kobysewo,18.26478,54.35643
5913,Korzecznik-Podlesie,18.76575,52.32431
6490,Jaroty,20.48774,53.71949
7532,Ogartowo,16.13854,53.76844
8343,Becejły,23.04907,54.26421
8805,Leśno,17.69963,53.94998
9294,Bierkowo,16.92819,54.47608
10860,Wierzchomino,15.96814,54.17117
10940,Cisownica,18.76148,49.71563
11212,Czarnochowice,20.06949,50.00622
11533,Krzaki Czaplinkowskie,21.16240,51.97777
13265,Majscowa,21.47900,49.69718
13902,Ostropole,16.43246,53.71574
14392,Mańkowice,17.47962,50.49390
16589,Komorniki,20.16853,49.83991
17204,Zielonowo,16.32126,52.91439
18286,Królowe,17.83786,50.25600
19325,Przęsławice,20.78585,51.89720
20142,Biadoliny Szlacheckie,20.73982,50.00166
20144,Doły,20.68775,49.92155
20457,Bilew,19.04657,51.57052
21328,Nowa Mała Wieś,20.56837,52.41213
21917,Wola Przemykowska,20.67801,50.17943
22034,Kusowo,16.55206,53.81090
22922,Kosów,20.82626,52.04532
23903,Zgrzebichy,21.87039,52.52174
24353,Grzywna,15.59378,53.05060
24426,Szymany,20.96417,53.48483
24996,Osówka,17.65886,54.32599
25082,Wielka Wieś,16.50651,52.36545
25443,Stefanów Suserski,19.59697,52.32873
25630,Ignatów,19.99645,51.73076
25702,Krzesk-Majątek,22.60576,52.07154
25818,Kandlewo,16.27223,51.75029
25831,Janowo,17.22722,54.03255
26289,Brzozówka,18.35297,51.19803
26390,Cieszki,19.79685,53.08051
26445,Błenna B,18.87884,52.37065
27115,Górczyna,16.25193,51.72169
27422,Rzegocin,19.11929,52.45109
27619,Obrąb,16.49123,53.69655
28911,Rdziostów,20.66840,49.65787
29324,Głębokie,23.09957,51.28881
29470,Bikówek,20.82302,51.88261
30039,Zajączkowo,17.01171,54.39569
30262,Sulików,19.98818,50.74167
30914,Janin,18.52264,54.03195
31021,Kosowa Niwa,17.79356,53.70695
31056,Olszak,17.00378,52.39342
31251,Kujanki,17.23176,53.69455
31284,Gościmierz,15.10492,53.98897
31480,Przyłęki,16.33679,52.97297
31868,Radzików-Stopki,22.50459,52.15474
32589,Gdeszyn-Kolonia,23.64388,50.76342
32676,Leluchów,20.93424,49.29923
32853,Kozłówek,21.68222,49.85489
33070,Sromów,20.04334,52.15109
33920,Smardzów,16.07461,51.61353
33941,Chodaczów,22.51953,50.14036
34318,Żyrowa,18.12956,50.45129
34917,Kowalewice,17.00512,54.06073
35118,Darginek,16.38527,54.02064
35183,Reszkowce,23.34905,53.56548
35726,Paplinek,20.37285,51.87635
36247,Stryjki,22.00786,52.91231
36591,Kalinowo-Czosnowo,22.55317,52.96324
36842,Leszczyna,15.99071,51.08471
36922,Plewki,21.60671,53.29830
37815,Oględa,20.88051,53.08383
38091,Dąbkowice,16.25470,54.34228
38167,Michalin,21.89060,50.86726
38302,Szczutki,17.89902,53.20226
38417,Gryżyce,16.51435,51.48004
38538,Duńkowice,22.83263,49.94105
38835,Nieżywięć,17.49813,53.69786
38906,Łętówko,17.92856,54.72841
39283,Pilawice,20.36647,52.23454
39440,Ogorzelec,15.89385,50.76580
39659,Rędziny,19.21627,50.85891
40029,Śniekozy,21.48126,50.67781
40109,Gawłowice,18.54623,51.76696
40142,Dębice,16.48691,51.15143
40200,Kościelniki Średnie,15.29068,51.06576
40894,Janowo,21.91950,53.35130
41586,Radzibórz,19.25597,51.90750
41605,Brzozowiec,17.56065,51.00366
41868,Proszkowice,16.68178,50.95908
42186,Czajewszczyzna,22.91211,54.24219
42413,Łękińsko,19.34761,51.21633
42424,Dorsze,22.63070,53.93051
42785,Stare Orenice,19.54286,52.07745
43124,Gutki,22.33546,53.60042
43377,Grabowska Huta,18.17046,54.18418
43939,Stawiska,16.32916,50.93917
44146,Wrzosy,18.91304,51.06004
44271,Dąbki-Łętownica,22.23344,52.89657
45095,Tatarowce,23.39051,53.10805
45193,Gąbinek,18.96445,52.73987
45583,Cegielnia,23.32779,53.21970
45861,Ostrówek,22.89244,52.83582
46349,Zarzecze,21.62025,51.89220
46395,Bytyń,23.63071,51.33093
46636,Stanisławczyk,22.83585,49.72436
48106,Przyborowo,16.93053,51.72231
48162,Siwkowo,15.00263,53.42421
48178,Nadwiślanka,21.82331,51.58537
48601,Korlino,16.62461,54.50819
48638,Biały Bukowiec,18.38166,53.94729
48992,Cisów,20.89795,50.75897
49089,Wiązownia,17.99582,51.38942
49103,Domanice-Kolonia,22.19029,52.04877
49141,Sroczyn,17.27859,52.55035
49525,Rajec Szlachecki,21.22350,51.41543
49597,Machary,15.42716,52.95272
49700,Grędziec,14.93905,53.21259
50921,Spytkówki,16.75443,52.07216
51038,Milewo-Tabuły,20.88348,52.90194
51065,Kłapówka,21.86176,50.22236
51219,Łubki,22.17785,51.24028
51246,Święte,18.40039,52.22988
51384,Tatary,21.49904,53.23022
51457,Mierkienniki,22.76894,53.45210
51514,Dębiny,20.99863,53.05668
51624,Wola Różaniecka,22.76028,50.32531
51837,Rudnik Mały,19.06031,50.65197
52223,Osmolin,19.84260,52.29724
52309,Koniuszki,22.77266,49.71237
52375,Zawada,17.78887,53.18560
52386,Tchórz,19.76101,52.59736
52482,Derczewko,14.89205,53.05578
53218,Radwanówka,22.22525,50.78925
53344,Łęki,20.68595,50.02209
53373,Orzełek,21.95342,52.63098
54021,Zagrody,15.67863,53.87993
54293,Podlasek,20.89531,50.44097
54308,Dąbkowo,19.97084,54.12244
54373,Okole,18.55367,54.03443
54599,Zacisze,23.48620,53.56586
54835,Dyniska Nowe,23.68317,50.38988
55133,Kadź,20.66307,51.50248
55284,Pawłówka,21.02910,51.86850
56013,Wujówka,21.59111,52.44376
56697,Szelejewo Pierwsze,17.16326,51.86562
57346,Leszno Górne,15.61662,51.47514
57353,Kołaki-Kwasy,20.69087,52.95445
57398,Dąbrowa,22.12571,52.79349
57409,Szyperki,22.29554,50.55598
58157,Dwór,22.57031,51.76652
59032,Skomorochy Duże,23.52900,50.84653
59081,Leśniczówka Dziurków,21.71151,51.13779
59360,Tańsk-Kiernozy,20.61805,53.17655
59363,Wola Rzeplińska,22.41668,49.89434
59570,Łabiszynek,17.61769,52.58727
59794,Łady,20.06545,52.36802
59839,Jeżów,19.59656,51.31734
60038,Podole Małe,17.31363,54.38124
60498,Gostchorz,22.30467,52.04847
60525,Modzele-Wypychy,22.19607,53.06085
60560,Sulnowo,18.44051,53.43194
60665,Teresin,19.13058,52.26784
60772,Wola Brzostecka,21.46124,49.88492
61264,Wolica-Kolonia,22.36308,50.76015
61437,Plebanka,18.92425,53.30539
61656,Dźwiniacz Dolny,22.56352,49.46922
62238,Ostrowsko,20.09906,49.47690
62511,Węgry,18.01955,50.74379
62638,Wyłudy,23.14521,53.48011
63191,Zielonkowice,17.26751,50.72728
63458,Brzezieński Młyn,17.25990,54.00110
63481,Brudzów,20.68546,50.71985
239,Czerniejewo,17.48996,52.42914
940,Radzymin,21.18333,52.41666
1337,Dębica,21.42131,50.04866
1624,Krasiczyn,22.66016,49.77456
1933,Ustronie Morskie,15.75683,54.21554
2095,Świeszyno,16.17042,54.12186
2161,Markusy,19.38549,54.04702
2548,Śliwice,18.18207,53.71413
2925,Augustów,22.97661,53.84686
2970,Jedwabne,22.30471,53.28474
3006,Wysokie Mazowieckie,22.51139,52.91680
10169,Koryta,20.99412,51.95752
11125,Chojnik,19.79893,53.96357
11456,Dąbrowa Szlachecka,19.72515,49.98461
11792,Trzebież,14.51273,53.65592
12487,Buk,22.39209,49.24312
14700,Józefów,21.21882,52.50266
15381,Gać,18.79149,53.46272
15754,Zienki,23.08518,51.47420
15814,Międzyrzecze Dolne,18.94552,49.85421
16143,Szymankowszczyzna,21.57965,52.24231
16489,Podsarnie,19.78913,49.55294
16568,Wolnica,20.32654,54.10152
17238,Dębołęka,16.32486,53.38198
17737,Osiki,21.75691,53.88427
17985,Stronie,19.67670,49.83026
18441,Próle,20.76313,53.90570
19843,Wisła Wielka,18.85338,49.95018
20856,Rogierówko,16.75052,52.47973
21591,Rabe,22.66615,49.36421
22388,Żerkowice,17.86239,50.65727
22888,Bukowice,17.36827,51.39632
22913,Białogórze,15.12379,51.15556
24297,Sadkowski Młyn,17.44160,53.19223
24366,Wielkie Bałówki,19.45302,53.41295
24710,Stara Morawa,16.88929,50.27164
24883,Dębówka,21.72278,51.67834
25109,Brzezinka,19.30925,49.83448
25586,Wróble-Wargocin,21.58931,51.62753
25648,Franopol,22.88144,52.33049
26452,Rochy,17.29656,51.66099
26496,Pogorzałki Wielkie,17.33854,51.85873
26623,Kaniewo,18.93357,52.50826
26811,Sułów,17.16865,51.49976
27065,Sowczyce,18.49804,50.84396
27204,Niedźwiadka,22.11137,51.90128
27380,Bystrz,21.39627,53.63030
27430,Jabłonica,20.79889,51.35437
27707,Kunowo,15.70370,53.81276
27835,Barcino,16.96291,54.27703
30443,Zaborze-Kolonia,22.05711,51.28307
31170,Grobla,21.17889,50.51276
31246,Rybienko Stare,21.43727,52.57782
31264,Wielkie,22.28453,51.45658
31325,Prądy,16.95422,53.54712
31458,Zabłocie,17.55523,53.03023
31689,Annopol Mały,20.11425,51.67424
32365,Wery,19.89208,53.35032
32474,Łojowice,21.67051,50.67025
32576,Gałązki Wielkie,17.91541,51.76374
32760,Gołębiów,21.63871,51.18939
32803,Obiechów,19.86228,50.57044
33109,Zmiennica,21.96613,49.67638
33379,Dębinka,18.14944,52.98528
33578,Kolonia Ldzań,19.28119,51.57533
33639,Trzebujewo,16.60845,53.83365
33686,Medynia Łańcucka,22.13574,50.13649
33726,Kocięcin Brodowy,20.21530,52.85563
33730,Ułanowice,21.37896,50.66206
33832,Gajewo,16.46322,54.05279
34133,Stary Kębłów,21.86850,51.79278
34377,Konary,20.72468,52.59474
34953,Sobiemirowo,15.67448,53.85981
35017,Dłutówka,21.27533,53.12097
35080,Lipowy Dwór,21.91127,53.96337
35471,Urszulin,20.72344,52.08098
35755,Czupowo,21.98205,54.29717
35926,Głowbity,21.09928,54.17641
36238,Rembiechowa,20.19995,50.74637
36356,Wyczółki,22.69178,52.17585
36411,Sadykierz,21.29319,52.70028
36439,Annowo,17.00225,52.49985
36926,Sułkowo Borowe,20.42149,52.94726
37049,Leszczawa Dolna,22.43139,49.67096
37190,Krzyżowa,16.42564,51.39771
37217,Góry,22.17243,51.00746
37220,Kretki Duże,19.43542,53.18139
37386,Ostrowite,17.62341,53.62497
37545,Zawady Stare,20.64931,52.71682
37750,Sieraków,22.43622,50.47460
37761,Leszcze,21.66563,50.18150
37790,Mościska,17.08304,53.18681
37913,Smużyk,15.45510,53.07932
37997,Paszów,18.13639,50.09699
38095,Gródek,19.71071,50.70126
38107,Żuraw,19.40819,50.78370
38985,Skała,15.59532,51.15623
40053,Nowe Bożejewo,22.27909,53.19829
40637,Barłogi,22.20221,51.42516
40830,Warzyn Drugi,20.19104,50.63177
40925,Korzeniewo,19.42816,52.99039
41212,Wnory-Wandy,22.59589,53.06201
41703,Urwitałt,21.64237,53.80533
41803,Strzakły,22.64559,51.98550
41960,Pakoszyn,18.36080,50.48158
42111,Budy Janowskie,21.65355,52.17454
42199,Nowe Brody,20.36736,51.15895
42242,Lubowicz-Kąty,22.54107,52.76542
42527,Koźniewo-Łysaki,20.73411,52.75492
43268,Przykopy,19.69389,50.44693
43393,Kronówko,20.72343,53.89612
43531,Grabiszyce Dolne,15.23080,51.03634
43830,Kobiałki,20.54014,53.18696
44216,Perklice,19.23276,53.84561
44469,Kościuszkowo,17.11433,51.78188
44863,Siedlece,22.93206,52.62405
45338,Podmokle Małe,15.80703,52.19047
45573,Czachów,20.92224,51.82373
45817,Roztoki,16.67216,50.19122
45854,Międzylesie,18.49622,52.07803
45961,Siedluchna,18.09083,52.58306
46066,Żaków,21.66317,52.06628
46201,Płoszczyna,15.74636,50.96282
46494,Bagicz,15.69683,54.19405
46783,Chludnie,21.99550,53.25775
46784,Dąbrowa,20.20962,53.40867
47075,Ruda Mała,21.06882,51.30053
47255,Cimanie,23.54143,53.50454
47448,Janki,19.07484,51.10017
47661,Franciszków,17.49641,52.11090
47968,Głuszczyzna,22.59268,51.14521
48078,Umieszcz,21.55567,49.71258
48309,Uśnice,18.91893,53.95527
49212,Nawodzice,21.43449,50.62080
49415,Kościerzyn,18.64555,51.62576
49936,Sromutka,19.21925,51.43323
50063,Lisowice,18.63463,50.67628
50088,Jabłonowo,16.19458,52.65509
50217,Chorchosy,21.57909,52.74727
50625,Tarnówko,16.59667,52.77551
50698,Wojciuliszki,23.16033,54.27485
51088,Kosowo,18.36050,53.34809
51389,Płazów,23.24484,50.31201
51441,Jegliniec,23.15341,54.30746
51665,Wólka Bankowa,19.69185,51.03917
52136,Niedabyl,21.07987,51.66403
52342,Romanowo,18.56545,52.35818
52427,Sierpówko,16.57579,52.47445
52464,Brzekiniec,17.05198,52.86917
52492,Gryżyna,16.71122,52.03098
52558,Zalesice-Kolonia,21.11651,51.25096
52708,Klekacz,23.54438,50.46668
52730,Prawocice,17.26156,51.28652
53172,Zapowiednik,18.66111,51.39868
53261,Kominki,21.06466,54.01976
53978,Wola Duża,22.57140,51.00808
54139,Nowosiółki,23.18599,52.54075
54188,Humin,20.22341,52.10122
54381,Szydłowo,17.93653,52.56102
54514,Nowy Folwark,19.88472,53.57984
54548,Tymowa,16.35439,51.44970
54679,Sadowiec,17.79789,52.65213
55191,Białe Błota,18.56835,53.53199
55393,Kątki,19.15490,53.90669
55630,Turza Mała,20.24291,53.11675
55785,Wola Kopcowa,20.71578,50.88111
55894,Brzóstków,17.57978,52.09477
56098,Leśny Dwór,18.17944,53.79889
56123,Gozdowiec,17.08031,52.64309
57271,Władysławowo,19.86715,52.93075
57684,Rochów,19.00986,52.19608
57687,Grzybowszczyzna,23.75693,53.32698
57779,Tarnawa Niżna,22.79911,49.12658
58242,Maronie,20.10038,53.83259
58352,Bagniewo,18.24964,53.35721
58795,Jamnica,21.92773,50.57797
58995,Górki,21.98320,51.21044
59051,Dubasiewskie Kolonie,23.18717,53.53809
59171,Florianów,19.52659,51.93316
59228,Podskarbice Szlacheckie,20.33099,51.75568
64155,Dybowo,16.66034,54.31675
64462,Wasiłowice,17.65814,50.40095
64532,Dąbie,16.49393,51.48227
64680,Ruda Kościelna,21.54962,50.94456
65173,Kopytkowo,18.65207,53.73680
65260,Mirosławice,18.27061,52.58811
65470,Zwierzyniec,23.73096,52.70712
65607,Bielawy,20.40992,52.76443
65624,Rurka,14.49045,52.99405
65737,Goździk,21.73342,51.90816
65864,Radwany-Zaorze,22.02898,52.89918
65911,Korboniec,20.32067,53.09472
67310,Jelonka,23.39164,52.60661
67396,Wielkie Pułkowo,19.08036,53.20103
67486,Łysomice-Leśniczówka,18.61675,53.06904
67651,Cempkowo,20.42528,52.59278
68009,Świchowo,17.84330,54.65423
68036,Werynia,21.82544,50.24817
72819,Kamienne Działki,20.65251,51.56062
76433,Nowiny,14.58806,52.81639
59479,Mądre,17.26345,52.16113
59630,Smaruj,18.72691,53.09640
59963,Hrebenne,24.01705,50.87502
60264,Anielin,20.83504,51.82948
60409,Iłownica,18.85499,49.86008
61469,Kalembina,21.68527,49.86966
62810,Poręba,20.01919,51.22452
63742,Jeziorki,23.09102,54.26940
63869,Lubienia,21.19136,51.05320
64247,Lubiechowo-Przystanek,15.84078,54.06386
64502,Zdziechowice,17.29307,52.30151
65049,Kamionka,16.86090,53.01878
65228,Niedźwiady,17.14979,53.89021
65364,Bendorzyn,19.56137,52.70971
65765,Szemborowo,17.72741,52.35835
66346,Posejanka,23.34941,54.08042
66889,Jabłonka,17.88787,50.01672
67292,Lipka,15.25872,53.25169
67553,Libiszów-Kolonia,20.30618,51.43228
67603,Biesowo,20.88527,53.93390
67606,Dawidów,19.99873,51.04607
67624,Tykadłów,18.12715,51.85623
67818,Wólka Kobyla,22.14037,52.08095
68045,Werchrata,23.36265,50.20475
72799,Garbniki,20.40024,54.34896
76463,Załazek,22.41767,49.76460
77676,Kosaki-Turki,22.27750,53.30306
81849,Lubiki Małe,18.16429,53.85372
123,Głogów,16.08749,51.66277
389,Damasławek,17.50024,52.83991
607,Raków,21.04489,50.67467
769,Szreńsk,20.12014,53.01254
1963,Studzienice,17.57782,54.09176
1991,Nowa Karczma,18.20367,54.13311
2012,Ostaszewo,18.95347,54.21210
2582,Krosno Odrzańskie,15.09726,52.05004
2803,Urzędów,22.14434,50.99367
2806,Kraśnik,22.22704,50.92237
3167,Stanisław Górny,19.62725,49.91178
3260,Ruda Wieczyńska,17.78291,52.03573
3866,Kowanowo,16.85131,52.65330
4560,Dziekanowice,20.01455,50.11841
5017,Kwiatkowice-Las,19.12781,51.74472
5026,Podole,20.85155,51.92621
5731,Nowy Ratyniec,22.23313,52.54090
7422,Większyce,18.11607,50.33024
7527,Stróża,19.92291,49.79570
7671,Węgiersk,19.07228,53.06820
11614,Rogoż,17.02620,51.21653
11759,Słosinko,16.98776,53.94320
11795,Lasów,15.03324,51.22867
12098,Czersk,21.23106,51.95731
12647,Zalas,19.62420,50.08013
13041,Starzyce,15.64718,53.04042
13712,Pieczyska,17.84783,50.97466
14076,Pietrzykowice,19.16501,49.70061
14802,Działoszyn,14.95655,50.91416
15496,Skrzynka,21.06089,50.27822
16107,Niedzieliska,20.62924,50.09528
16126,Ciche,19.84841,49.37788
18824,Skrzeszewo,17.83670,54.41058
19055,Krzywonoga,20.73718,53.67414
19890,Wygryny,21.55094,53.68223
20195,Niekanin,15.62163,54.14875
20897,Gaboń,20.56111,49.52904
21948,Teodorowo,19.27585,52.75313
22261,Krępa,19.82053,52.01952
22454,Pierzchały,22.00294,52.32702
23087,Marianowo Brodowskie,17.33226,52.17833
23842,Jarochówek,19.15245,52.16755
24251,Mądrzechowo,17.51501,54.15689
24521,Czarna,20.85168,50.69741
24837,Wronów,16.44632,51.75235
25020,Sobowice,23.41788,51.12075
25173,Turkowy,17.83300,51.28062
25235,Gawrony,20.20367,51.39507
25280,Czersk Koszaliński,16.15002,54.13781
25431,Głęboki Rów,23.03322,54.18706
25662,Starowice Dolne,17.32831,50.64375
25898,Wymysłów,20.97326,51.06274
26055,Ciółkowo Rządowe,21.25983,52.73785
26093,Karmin,16.65401,51.97977
26489,Nowy Żelibórz,16.78957,54.05474
26578,Miroszka,17.71577,52.46660
27179,Nowe Pole,19.40482,54.13832
27283,Górowo,20.98123,53.96262
27330,Tuczępy,16.00426,52.53197
27747,Wólka Gościeradowska,22.03598,50.87664
28262,Sułów-Kolonia,22.94107,50.75979
28514,Jadwiniów,20.81596,51.41129
28584,Górki,19.34564,53.82157
28777,Małe Drzewce,16.16079,51.78275
28989,Krukówka,21.83458,51.59816
29124,Jabłonna,22.59401,51.08864
29286,Izdebno,17.64177,52.75531
29331,Łomno,20.70140,53.32861
29602,Połoń,20.97849,53.20940
30172,Gzów,20.01949,51.85061
30361,Ściborzyce,19.90359,50.29711
30566,Babin-Olędry,17.87114,52.34086
31163,Borki-Kosy,22.36340,52.08757
31323,Boników,17.66311,51.54349
31342,Maruszów-Kolonia,21.80390,50.88125
31513,Grabówek,21.32936,53.11328
31669,Rzędków,19.15367,52.19378
32336,Stare Świerczyny,19.49237,53.23998
32466,Puczyce,22.79671,52.26600
32535,Wola Nowska,19.20962,52.22819
32545,Wróblik Szlachecki,21.86742,49.60791
32572,Nowa Wieś,17.48991,53.57542
32910,Werginki,18.12068,51.89800
32916,Nowe Raczki,22.57702,54.04435
33253,Wyszyna Rudzka,20.19913,51.14911
33784,Szatki,19.01304,52.53666
34934,Glanów,19.81163,50.31595
35057,Kuchnia,18.87095,53.89253
35160,Sokolnik,19.64198,54.18635
35524,Zagrzewo,20.49176,53.32741
35858,Chruścińskie,19.00644,51.20779
35989,Retniowiec,19.95577,51.93824
36044,Przybyszew,20.92091,51.68644
36158,Pleśno,19.71425,53.87639
36331,Huta Przerębska,19.70725,51.12673
36437,Gosie Duże,22.33355,53.05382
36636,Stare Wierzchowiska,22.27370,51.12320
36688,Nowy Bugaj,18.63233,50.98470
37075,Nowa Obra,17.45774,51.85900
37130,Jazowa,21.66016,49.85755
37616,Ossala-Lesisko,21.34173,50.48654
38513,Bukowo,16.59469,54.17323
38627,Biskupice,16.21667,51.13455
38633,Eustachów,20.27339,50.92979
38738,Podbiele,21.92812,52.92360
38921,Śliwnica,22.41265,49.84929
39719,Zbylczyce,18.93079,52.06788
39744,Ławy,19.38989,53.07007
39913,Pijawnia,20.01075,52.85605
40141,Stawnik,15.12769,51.56800
40145,Osówiec,17.12489,51.92152
40197,Bujaki,22.73592,52.41917
40513,Grudna,19.10487,51.34272
41148,Wielka Komorza,17.88500,53.64764
41249,Stankowo,17.24922,54.25372
41478,Śliwno,22.85101,53.09202
41735,Janów,19.13355,51.92542
41877,Antoninów,19.45198,52.42649
41892,Kozłowo,19.95036,52.70971
41994,Karmelita,17.48274,53.00902
42784,Jasień,20.11373,51.61835
42886,Nowy Reczyn,20.00974,52.45069
43463,Rybka,18.34674,51.36984
43679,Łazy Biegonickie,20.68607,49.56598
44085,Gręboszów,17.80869,51.05651
44188,Głąbowo,21.55410,53.96074
44253,Zapniów,20.57471,51.31663
44661,Gzin,18.32754,53.19981
44701,Nowe Czernice,20.74004,53.03281
45088,Stachowizna,21.27547,54.01113
45173,Kuśnierz,18.23064,52.53915
45318,Przylepki,16.93267,52.13389
45474,Księżyce,17.19709,50.77917
45475,Nikisiałka Duża,21.50289,50.78754
45551,Wolaniny,22.80508,50.53263
45756,Sacharki,23.70031,52.96237
46042,Leśno,18.94176,53.09096
46174,Sulisław,17.30521,50.69165
46364,Gmurowo,17.03530,53.22317
46679,Lechowo,20.27220,54.20341
47271,Witów,19.69643,50.65001
47388,Bernacice Górne,17.88384,50.16047
47704,Orzechowo,18.81740,53.20075
47792,Drawień,16.85036,53.65871
47850,Zagórze,20.33286,51.80508
47893,Tomaszewo,20.64531,52.59739
49824,Brzostowo,17.42766,51.43343
50189,Kolonka,21.33393,51.44446
50445,Michorzewko,16.34017,52.35517
50850,Górka,15.04921,51.65758
51049,Nowa Olszówka,20.15510,50.50675
51644,Lekity,20.69476,53.96593
51849,Czerwięcino,15.80902,54.06637
51909,Róża Wielka,16.48015,53.14002
52311,Zatorze,22.04391,53.61713
52432,Unieck,20.20074,52.86811
52575,Wólka Kunińska,21.53417,52.84723
52684,Ościsłowo,20.43432,52.83605
53004,Wilczkowice Dolne,21.35926,51.78678
53092,Stare Racibory,22.69148,52.94785
53312,Kolonia Sarnowa,18.28317,52.38325
53674,Leśniczówka Błaziny,21.23667,51.11139
54110,Ostrykół Włościański,21.48516,52.78177
54162,Koziel,20.97072,50.75138
54165,Danówek,22.51031,53.62110
54201,Urbanowice,18.03311,50.30069
54853,Komierówko,17.61041,53.44911
54997,Poręba,17.32444,51.92637
55100,Mierzyn,19.26086,53.46476
55285,Opożdżew,21.09300,51.76422
55475,Narty,20.46953,51.84640
55741,Łopiennik Nadrzeczny,23.05833,51.04479
56154,Tobiasze,19.95482,51.57303
56257,Ksawerów,19.67356,51.79337
56335,Koskowo,21.97809,52.96696
56453,Kawęczyn,22.76028,51.14556
56683,Zamłynie,18.80937,50.85976
57206,Modełka,20.45377,52.90230
57400,Chobanin,18.21797,51.29899
57426,Pasieki,21.43926,51.20178
57801,Morawsko,22.70354,49.96919
58039,Roztoki,15.08293,51.75177
58072,Zdziary,22.26039,50.56947
58209,Wyrazów,19.00808,50.78335
58248,Wichów,15.46274,51.74298
58746,Myszki,22.15955,53.66182
58762,Trakt Puszczański,19.13118,51.31733
59169,Dębowice,18.90472,52.17528
59521,Zabłocie,18.45955,51.30132
59763,Popiel,23.44573,52.00086
60049,Studzieniec,20.09145,51.10612
60171,Wierzbica Szlachecka,20.17145,52.63977
60296,Mścichów,20.86583,51.50984
60692,Wygoda Plugawska,18.14022,51.42690
60762,Zaskwierki,22.10238,53.65686
60765,Czernice,15.41246,53.20304
60830,Korczunek,24.04278,50.62333
61081,Helenów,19.70436,51.78460
61149,Wielogłowy,17.15842,54.47637
61837,Szymonków,17.97986,51.09457
62201,Baran,20.46660,51.04297
62209,Groń,20.06164,49.38804
62475,Świerzno,16.85082,54.07259
62527,Łoje-Gręzko,22.44036,53.36537
62674,Sukowice,18.17475,50.26492
62822,Golenice,14.79259,52.95107
62836,Gawłów,20.46386,50.02434
63260,Czepielowice,17.49351,50.88170
63339,Modryń-Kolonia,23.88080,50.66466
63463,Piekary,16.96944,51.32715
63724,Wyszanów,18.15936,51.36060
63902,Straża,16.77936,51.39954
63905,Stara Kolonia,18.59271,52.60089
64019,Dalnia,20.30443,52.96253
64267,Chmielew,22.15533,52.41599
64271,Walga,17.71665,52.16899
64279,Białowierśnie,23.31575,54.05116
64290,Ciemna Dąbrowa,21.01910,53.46339
64297,Chełst,21.54430,52.09101
64353,Dziękowizna,21.66595,52.17864
64713,Liza Nowa,22.76767,52.86246
64865,Wziąchów,17.27908,51.79053
64890,Belfort,17.83615,54.03870
65078,Wilczeniec Bogucki,19.06606,52.71656
65420,Sulin,17.43978,52.57101
65423,Rogożajny Wielkie,22.85440,54.33359
65512,Latonice,20.68911,52.63494
65922,Stasin,20.08882,51.32093
66489,Łapy-Szołajdy,22.90471,52.97846
66514,Świątniki,16.95213,52.22939
66892,Lamkówko,20.67280,53.89015
67890,Cielce,18.56426,51.73664
72809,Polubicze Wiejskie Pierwsze,23.10917,51.76833
73025,Baraki Osuchowskie,20.57512,51.87424
70,Buk,16.51973,52.35477
173,Jaworzno,19.26565,50.21052
207,Słupsk,17.03442,54.46670
368,Słupca,17.88336,52.28910
430,Chrzanów,19.40482,50.13958
765,Lipowiec Kościelny,20.17669,53.10397
2220,Morąg,19.92865,53.91736
2364,Łazy,19.39561,50.42765
2834,Bychawa,22.53739,51.01295
5233,Miodówko,20.37773,53.64423
7587,Szczepanowice,20.87451,49.93008
8607,Warszyce,19.45118,51.95800
11044,Kawec,20.23126,49.84380
11958,Bliżyce,19.56238,50.64094
12792,Postoliska,21.46781,52.44764
15125,Nowa Wieś Ostródzka,20.24474,53.50811
15272,Zielątkowo,16.81235,52.56027
15543,Jodłówka-Wałki,21.13631,50.05042
16225,Gościejewice,16.80107,51.73386
17630,Wierzchaczewo,16.47037,52.53547
18460,Pławna,17.08963,50.83536
18951,Biała Wieś,20.53285,51.87396
19317,Osieczek,20.72662,51.88439
19718,Sowinko,16.50299,54.16993
21500,Gródek,18.40423,53.50450
21938,Kostki Małe,20.62274,50.46136
21949,Księża Wólka,18.76099,51.85656
24827,Leopoldów,21.60407,51.11986
25099,Uszczyn,19.77907,51.39606
25126,Tuczępy,15.89049,52.81512
25208,Wieprzowe Jezioro,23.44047,50.48306
25722,Nowa Wieś Iławecka,20.60672,54.32508
25805,Konopki-Monety,22.15511,53.42869
25812,Krzczonów Drugi,22.72886,50.96532
25884,Koźlątków,18.32153,51.82427
26365,Stony,17.80043,53.97655
26570,Postronna,21.52343,50.63038
26662,Książenice,18.60067,50.15581
26977,Bukowiec,20.40187,54.28843
27679,Sierniki,16.73068,52.19457
27808,Winna Góra,16.80271,50.85019
27912,Strzemieczne-Sędki,21.39443,53.01184
27962,Poniaty,22.55270,52.60785
27997,Osiek,17.97210,54.48361
28127,Krekole,20.75147,54.16463
29142,Kławki,19.23025,54.04286
29295,Bzowiec,20.31062,54.01676
29402,Janiszowice,14.66199,51.77473
29527,Kuchary,20.45309,50.16653
29947,Poręba,15.71006,52.62374
30437,Giemlice,18.84810,54.21005
30762,Kotłowacz,21.42792,51.10238
30830,Barnisławice,15.02360,53.79548
31216,Nowosiółki,17.31151,53.68928
31253,Wólka Biska,22.60917,50.44903
31275,Goranin,18.24868,52.36014
31347,Jemiołów,15.29144,52.37395
31735,Koconia,19.79115,51.05769
33415,Dąbrówka Wisłocka,21.33424,50.16501
34792,Batorówko,17.30564,53.47966
34901,Łobez,17.33696,51.96942
35285,Ratyczów,23.72660,50.46972
35338,Stary Gostków,19.02106,51.96964
35619,Goszczk,20.13524,52.87915
35872,Maszków,17.33870,50.88260
36101,Łosośniczka,15.28050,53.69860
36159,Cieśle,19.74945,51.15424
36369,Syberia,19.77300,51.84361
36513,Zacisze,23.08179,51.53036
37174,Mroków,21.80561,51.75501
37337,Wolkowe,21.38998,53.41558
37572,Jałowo,22.95726,54.27293
37583,Stok Nowy,18.37300,51.61203
38411,Huta,21.33657,51.46454
39008,Borzejewo,17.32834,52.31527
39938,Czekaj,20.49278,51.98121
40447,Zagajówek,20.43568,50.48683
40673,Sierosławice,20.35847,51.19452
41252,Piotrowice,20.51234,53.33806
41445,Zambski Stare,21.22386,52.74411
41601,Bałki,22.36183,52.42856
42459,Rusowo,15.81019,54.16466
42720,Osowo Duże,17.38110,53.96912
42950,Walentynów,21.63351,51.09338
43055,Siemidarżno,15.36289,54.03300
43252,Wartowice,15.65029,51.22303
43391,Wójtowizna,21.41750,51.94215
43492,Dąbrówka,20.60099,52.34993
44001,Złota,18.83366,52.21225
44131,Upuszczew,18.53287,51.67925
44361,Kiedrzyn,20.72031,51.59706
44539,Zachmiel,21.10181,51.66163
44804,Łosiewice,21.73371,52.57899
45364,Cetty,18.96135,52.38573
45389,Łąki,22.17167,51.28359
45586,Kamianki-Nicki,22.58108,52.30866
45692,Małocin,20.00506,53.00101
46091,Lenarczyce,21.67338,50.70246
46170,Nowy Białynin,20.25662,52.15960
47154,Kolonia Obory,17.83749,52.03367
47600,Wiktoryn,21.58556,50.96679
49110,Dębiec-Kolonia,18.70621,51.31666
49524,Przyłaje,21.30028,53.07889
49779,Stare Mierzwice,22.97491,52.34586
49813,Konarzynki,17.39598,53.81926
51011,Urniszewo,17.24403,52.26716
51127,Niesułowice,17.34307,51.51522
51390,Chrapowo,15.24936,53.04608
51595,Bobrówka,23.01558,53.46451
52743,Gosławice,18.68611,52.75693
53105,Janowiczki,16.94756,50.73795
53145,Huta Stara A,19.12167,50.72656
53410,Grójec Mały,15.91606,52.18613
54309,Sawice-Dwór,22.48897,52.34751
54311,Budzień,14.68814,53.61774
54382,Wronie Góry,23.44668,54.01916
54440,Gołębiów,21.53048,50.72453
54637,Nowa Wieś Niemczańska,16.82428,50.69415
54702,Koźniewice,19.47149,51.20252
54903,Bagienice Duże,20.00828,53.14566
54996,Łukaszewo,17.27688,51.95700
55669,Połajewko,16.72403,52.82141
56241,Bartolin,19.64476,51.85738
56585,Źrebce,22.93408,50.75613
56671,Będźmierowice,18.05355,53.80207
56706,Cezaryn,22.02234,51.54790
56815,Podgórze,18.94338,52.06246
57010,Ameryczka,17.63514,52.98976
57053,Broniszew,20.90776,51.73355
57454,Rosochy,20.48180,52.98946
57515,Tadzin,19.73717,51.84223
58010,Bielice,15.12396,53.50426
58263,Parszczenica,17.44669,53.92499
58766,Głupiejew,19.37350,52.09178
58783,Sawino,22.86534,53.16815
59212,Ostrowik,22.46831,53.40400
59371,Tupadły,19.30020,52.73447
59529,Rudzk Mały,18.45356,52.52870
59634,Skotnica,18.51392,51.05291
59681,Kromołów,17.97849,50.40072
60844,Szydłówek,20.89352,51.24166
61511,Lubodzież,18.26011,53.49152
62310,Wola Krasienińska,22.48114,51.36344
62854,Sopoty,19.90605,54.18892
62868,Grądy,17.20302,50.51136
63538,Bardzinek,19.15647,52.26669
63550,Dzierzążenko,17.03749,53.38705
64092,Cegielnia,21.71696,50.95775
64103,Zameczek-Kolonia,20.93567,51.47928
64481,Lipa Przednia,21.67657,53.57741
64786,Wólka Iłówiecka,21.53420,52.12074
65004,Nowe Sady,17.91839,50.24492
65256,Maszkowice,19.32866,51.96879
65554,Gozdowo-Młyn,17.64772,52.28801
65678,Pęczyny,21.60479,50.74611
66047,Polakowice,17.06555,50.94442
67314,Szczodrochowo,16.99229,51.93671
68050,Chotcza Dolna,21.78530,51.23010
68374,Kolonia Wieruszowska,18.30386,51.26580
72786,Lipowe,20.57644,51.50540
72929,Rodowo,20.30000,53.44759
72993,Żabieniec,20.78456,52.06712
74106,Reduchów-Kolonia,18.85438,51.68716
170,Piekary Śląskie,18.97699,50.36864
303,Ślesin,18.30713,52.36931
422,Czchów,20.67580,49.83485
703,Grodzisk Mazowiecki,20.62373,52.10206
865,Zatory,21.18498,52.59865
919,Leszno,20.60887,52.26534
1184,Warta Bolesławiecka,15.66438,51.23223
1191,Jerzmanowa,16.04588,51.59604
2571,Gąsawa,17.75870,52.76843
2777,Mircze,23.89632,50.64982
2892,Tarnawatka,23.39112,50.53337
2924,Bargłów Kościelny,22.82110,53.77196
2958,Turośl,21.72959,53.38708
4060,Wola Krakowiańska,20.80630,52.03030
4409,Przygórze,16.55851,50.60662
4609,Kuźmina,22.43489,49.61362
5369,Świerzawa,15.89675,51.01384
5448,Stara Dobrzyca,15.53798,53.81830
7585,Kępa Bogumiłowicka,20.87585,50.00113
8110,Tyniewicze Duże,23.47606,52.86303
9656,Łajski,20.96708,52.41491
13777,Panieńszczyzna,22.45440,51.29258
14088,Lubachowy,19.95896,50.64108
14498,Dobków,15.95863,50.98667
15424,Wilamowice,18.76399,49.80302
16068,Łącko,16.61047,54.51998
16115,Strzegomiany,16.74704,50.87996
17192,Zawada,16.64693,53.19202
17271,Bukowina,17.84419,54.42304
19163,Jankowice,18.99708,50.00118
19321,Strzeżewo,16.70235,54.10719
20362,Lasocice,17.46267,50.53161
21873,Gościeńczyce,20.95179,51.91112
23913,Nowodwory,22.44722,52.70136
23931,Krzyżanowice,20.44177,50.00711
24219,Siecieminek,16.36147,54.24640
24304,Pyszczynek,17.58547,52.56501
24347,Dwukoły,20.27176,53.14575
24518,Orczów,20.29857,50.92822
24526,Skrzydłowo,18.26618,54.12713
24820,Antonina,19.11830,51.15427
24926,Proboszczowice,18.41838,50.43453
25418,Sarzyn,20.06484,52.62846
25512,Kownaty-Borowe,20.53936,52.81642
26009,Sakówko,19.62703,54.04964
26160,Celestynów,20.08598,51.43799
26189,Przybyszów,17.94053,51.32202
26348,Bażany,18.17546,50.92917
26482,Rudy,22.03798,51.41512
26954,Szczepina,18.17691,50.86166
27043,Krzepocin,14.97911,53.90922
27191,Sprowa,19.89049,50.59867
27341,Krzywa,15.19913,51.84463
27719,Świba,18.08885,51.30077
28291,Annolesie,18.94357,51.05796
28740,Sędek,19.94094,52.65251
28809,Szczawinek,19.62873,52.36750
29356,Stary Łuszczewek,20.53579,52.22556
29473,Budzimskie,15.48194,54.09056
30339,Targowiska,21.82311,49.63398
30351,Krągola,18.25267,52.15063
30429,Kownacin,22.22828,53.51843
30526,Glinno,16.47330,50.71916
31400,Wilhelmów,20.66851,51.74777
31461,Kolbuszowa Górna,21.78890,50.23075
31984,Popławy-Kolonia,20.10926,51.34055
32005,Kupimierz,20.45701,51.29870
32322,Wardęgowo,19.28024,53.44599
32443,Panienka,17.36389,52.00056
32830,Stare Guty,21.91839,53.61092
32887,Konopki-Kolonie,22.40719,53.66467
33383,Kopiec,21.34008,50.70781
33815,Solca Wielka,19.23650,51.98680
33932,Sulibórz,16.17812,53.62579
34016,Stare Podole,21.31648,51.85241
34066,Gniewkowo,17.25220,52.55500
34353,Dąbrówka Mała,19.74403,51.85163
34896,Zaosie,19.93475,51.63628
34986,Malanowo Nowe,19.51066,52.80024
35482,Stawki,22.17897,50.77274
35626,Lubowicze,22.73578,52.52762
35823,Ruda,22.71546,52.35109
35980,Wólka Orłowska,23.18382,50.92721
36005,Krzywczyce,15.65422,51.56079
36229,Czarnówka,21.43630,52.13207
36545,Długa Wieś,18.61411,51.92620
36729,Wysocko Wielkie,17.85450,51.62153
37421,Raczek,19.70253,53.53855
37623,Łęg,19.35852,51.28141
38192,Puszczykowo,16.45091,52.12139
38236,Lipiny,20.51036,51.54388
38296,Morawsko,14.79834,53.35558
38316,Średnie Wielkie,22.21948,49.39843
38375,Będków,18.75413,51.47005
38535,Dębowiec,18.02716,53.58416
38661,Karaś,19.50234,53.56183
38677,Borysławice,18.42086,51.65445
38994,Dziersławice,15.27301,52.64572
39328,Mojsławice,23.77177,50.87700
39830,Wólka Czosnowska,20.67250,52.37179
39940,Duże Krówno,18.20741,53.74511
39948,Lubojna,19.12040,50.89124
40059,Antonina,21.71228,52.32079
40126,Malamówka,21.65133,51.67227
40186,Borzynowo,17.48833,51.50449
40472,Stare,16.60545,52.47657
40538,Kolonia Hołowienki,22.25657,52.52261
40726,Puszcza Rządowa,19.49348,52.99316
40809,Byszew,18.97091,52.10440
41327,Kucze Wielkie,22.36751,53.29727
41356,Batogowo,21.31176,52.97467
41768,Goworowo,20.42134,52.43145
43556,Rawki,21.16628,53.27095
43670,Stoki,19.88493,50.22165
43763,Powały,21.97863,51.90051
44223,Gilewo,16.65081,54.11059
44917,Grobniki,17.87591,50.19741
45122,Odcinek,18.56912,51.06630
45356,Jelcza Mała,20.43565,50.49746
45510,Brenica,20.06821,51.63402
45748,Rzepin-Kolonia,21.07334,50.96693
45783,Aniołka Druga,17.97934,51.15526
46015,Kleszczyniec,17.52734,54.33322
46099,Winna-Wilki,22.57356,52.68503
46160,Dzierzbiętów Duży,19.23900,52.03184
46662,Kaźmierzyn,18.86010,52.80822
47230,Dziadkowskie,22.79131,52.08553
48021,Robaczewo,20.45799,53.35771
48145,Chudzowice,14.88861,51.64707
48224,Kamianka Nadbużna,22.35616,52.65496
48242,Kraśnik Koszaliński,15.99696,54.12505
48531,Wola Bobrowa,22.35452,51.76010
48965,Barak,20.86158,51.19757
49205,Trzeszczany Drugie,23.71930,50.83071
50119,Łowęcice,16.74159,51.12132
50276,Korzekwin,18.33325,51.67194
50440,Bukowie,21.26468,50.92567
50531,Borkowo,15.93962,53.75870
50584,Katarzynki,18.90274,53.30286
50596,Skubiki,19.64754,52.02732
50769,Rąbież,20.42805,52.51095
51472,Orle,18.21351,54.05365
51723,Skiereszewo,17.53460,52.53605
51967,Dąbrowa Górna,20.97113,50.93278
52956,Mechowo,15.02659,53.89632
53151,Stega Mała,20.31180,54.31045
53399,Knapówka,19.90985,50.79125
53690,Burczak,23.21166,53.28668
53829,Kolonie Stanisławów,21.59378,52.30120
54074,Grabnowola-Kolonia,21.32228,51.66547
54244,Straż,23.38419,53.33168
54258,Gulbity,19.72041,54.09654
54261,Podrzecze,17.02741,51.86089
54417,Wyskoć,16.78617,52.04949
54427,Wielki Podleś,18.03641,54.07247
54570,Miłkowice-Stawki,22.63643,52.47584
55134,Czerniejów,22.70334,51.40028
55263,Luciąża,15.36064,53.83622
55980,Bartoszkowo,16.92546,53.33741
56348,Poprężniki,18.57241,51.76537
56955,Goszczyno,20.08475,52.66050
57003,Kręski Młyn,18.47085,53.99173
57043,Gołębiewek Stary,19.30627,52.25165
57729,Stara Wieś,18.67527,52.85658
58479,Kromnów,20.33386,52.37765
58738,Tomaszewo,19.21116,52.81129
59532,Suchowizna,21.52895,52.26781
60010,Tybory-Trzcianka,22.38325,52.95967
60524,Złotnica,19.30537,54.03117
60637,Adamki,17.11498,54.00057
60639,Tłoki,16.18020,52.11087
60921,Stary Cydzyn,22.12333,53.24308
60947,Krzywińskie,22.24463,53.70927
61049,Łopienie-Jeże,22.72664,52.87495
61134,Kolonia Olszowa,19.85425,51.58609
61198,Kosmów,18.26670,51.88611
61394,Słopanowo,16.53173,52.68236
61582,Kwiedzina,21.46724,54.05157
61698,Przedborowice,18.08759,50.26217
544,Wietrzychowice,20.76849,50.18872
970,Rusiec,18.98790,51.32532
1641,Wielopole Skrzyńskie,21.61645,49.94487
1655,Tyrawa Wołoska,22.36471,49.57409
2044,Rumia,18.42748,54.59015
2104,Myślibórz,14.86529,52.92164
2429,Tułowice,17.65408,50.59544
2480,Chełmno,18.43333,53.35000
2673,Bielany Wrocławskie,16.97184,51.03923
3575,Prusice,16.96239,51.37169
6445,Cisiec,19.10609,49.58738
7466,Dębiec,17.15632,52.23487
7968,Olchowiec,22.52464,49.30008
9176,Trójca,15.10282,51.15903
10140,Piaseczna,15.16135,51.34208
10280,Szczaki,20.89169,52.01326
10779,Joachimów,22.35672,52.13658
10893,Nadma,21.16789,52.36111
11920,Dębowa Góra-Kolonia,19.96335,51.30394
13619,Zbrojewo,15.71591,53.54710
14512,Zagacie,19.71322,50.00218
15570,Stróże,20.75737,49.83954
15762,Bytnik,16.17416,51.64128
16214,Trąbki Małe,18.57035,54.18334
16756,Turów,17.07122,50.99526
16780,Imbramowice,16.56840,50.96735
16941,Zbyszewo,16.91751,54.32976
19845,Starkowa Huta,18.18580,54.22599
21060,Adamów-Parcel,20.59363,52.01854
21083,Stróża,22.22617,50.92199
21294,Natalin,21.48614,52.62707
21336,Nowe Lipiny,21.27131,52.35615
21690,Wysoka,19.60476,49.90624
21902,Widoma,20.00830,50.20513
23841,Garwół,16.70638,51.35065
24329,Karszówek,17.17762,50.75580
24361,Koplin,15.39423,53.15663
24388,Biezdrowo,16.30667,52.68788
24779,Gładków,20.89420,51.97118
24854,Łążek,19.64420,53.48523
25163,Szczebra,22.97331,53.90743
25757,Lelek,21.60069,53.86088
25902,Kościerska Huta,18.02554,54.14617
25914,Wygnanka,22.38478,51.65205
26144,Tarnówko,18.39716,52.61570
26532,Pstrowice,14.94673,53.09237
26826,Bielawy,20.53186,53.24037
27190,Niezdara,18.99496,50.44973
27839,Janikowice,20.78690,50.19178
27948,Łoniewo,16.68735,51.88970
28108,Zajączkowo-Folwark,22.75269,54.08405
28306,Rostki,21.23378,52.84343
29143,Puzdrowo,17.85770,54.33818
29379,Pakość,15.39631,53.18938
29580,Żukowo,20.26155,52.50164
29632,Rychnowo Żuławskie,19.11470,54.18677
29894,Bończa-Kolonia,23.41738,50.94714
30013,Koszyn,16.58311,50.53196
30153,Toninek,17.67194,53.35783
30182,Bronisławowo,18.82183,53.65085
30520,Jagłowo,22.98739,53.62338
30604,Jasieniec,21.27522,52.53912
30811,Czyżów,20.84696,50.16422
31182,Kalinowiec,18.11853,52.37831
31430,Małuszów,15.13664,52.37166
31561,Nowe Marcinkowo,20.89343,53.82803
31677,Szczuczyn,16.57854,52.63691
31822,Posiadały,21.72563,52.10269
31918,Pasierby,17.12095,51.71422
32131,Elżbiecin,20.69019,52.88529
32197,Nowa Wieś,16.39209,53.45384
32486,Mała Kępa,18.16037,53.13179
32865,Jabłoń-Dąbrowa,22.69914,52.91056
33099,Bolesławowo,18.48584,54.07898
33213,Kozłówko,19.93173,52.71081
33494,Kamieńczyce,20.41501,50.25124
33580,Brzeście,16.99416,50.92737
33895,Żytowiecko,17.00135,51.88521
34012,Kopyta,19.08673,52.22287
34599,Janowiec,21.01102,54.12689
34646,Emilianów,18.56589,51.39267
34649,Spławy,21.92082,51.03646
34954,Krajęczyn,20.58285,52.61831
35693,Wola Wadowska,21.18736,50.27211
35706,Cwaliny Duże,21.92191,53.29419
35711,Teodorów,19.58777,52.31858
36452,Giże,22.40075,53.98940
36567,Barkowo,16.79742,51.47581
36906,Wyrwa,18.37111,53.43694
36958,Płaczkowice,21.40418,50.69095
37179,Suchy Młyn,15.21527,52.01274
37243,Olek,17.77124,53.08424
37370,Górny Wiec,18.33863,54.11100
37675,Rudno,21.51024,52.08290
37683,Badrzychowice,20.78648,50.34835
37976,Bolcie,22.82403,54.36087
38158,Koszkowo,17.15712,51.92030
38568,Łętowice,18.15327,54.79479
38915,Kąty,19.65299,52.30812
39056,Mchowo,18.69233,52.38969
39162,Świerzyny,18.91339,51.54726
40201,Dąbrowa,23.71323,52.90034
40445,Ruszkowo,18.42444,52.42556
40453,Łukaszewo,19.14439,53.02384
40890,Łososina Górna,20.40680,49.73718
41063,Tymienica Nowa,21.70032,51.26984
41184,Myślibórz,16.11751,51.02602
41202,Zaborowo,19.63156,53.22831
41204,Anusin,19.32308,52.15674
42107,Wola Świdzińska,20.07788,50.92756
42337,Łęczeszyce,20.77210,51.77669
42586,Wiktoria,21.69570,52.39101
42825,Rzepiczna,18.01093,53.71668
43153,Nowy Ludwików,20.09778,51.89200
43774,Aleksandria Krzywowolska,23.26754,51.13917
44446,Bedoń-Wieś,19.64003,51.74673
45682,Wiksin,20.63938,53.07583
45970,Tafiły,22.18760,53.40172
46595,Obidówek,19.36028,52.15409
47156,Stróża,19.12489,51.21587
48093,Wąglik-Kolonia,21.76298,53.63191
48435,Jedwabno,18.77152,53.05104
48529,Włosty,22.20986,53.59905
48614,Kopalina,17.56667,51.43333
48634,Mokre,17.70292,50.15605
49345,Omięcin,20.84465,51.32210
49729,Krajewice Duże,19.78660,52.77822
49764,Posada,20.80900,51.43083
50185,Cieśle,17.01852,52.76897
50683,Gąsawy Plebańskie,20.95955,51.22723
50969,Wola Zambrzycka,22.27423,52.97757
51397,Jankowo,19.40453,53.95929
51858,Humięcino,20.59532,53.00628
53585,Mariany,18.84710,53.15537
53802,Borek,21.63000,50.48000
54463,Janowo,17.23026,50.80136
54544,Siemianów,19.32993,52.32096
54562,Smólnik,21.49187,52.90901
54632,Skarpa,17.62844,53.49750
54871,Parafianka,22.01877,51.54170
55446,Żmijewo-Ponki,20.49517,53.00246
56202,Wymój,20.35190,53.65876
56649,Bronaki-Pietrasze,22.28458,53.26698
56897,Derewiczna,22.91874,51.78727
57683,Miechowo,22.33340,53.72051
57847,Chraplewo,16.53470,52.72117
57909,Świnków,20.40434,51.08313
58184,Giemzówek,19.58903,51.68314
58292,Bartniki,19.33884,53.27026
58765,Kaleń Pierwszy,21.71297,51.73170
59062,Ogródek,21.89761,52.25944
59347,Ocin,18.61948,51.61392
59967,Łąka,15.57145,51.29963
60194,Bolesławów,17.30767,51.89108
60341,Rybical,21.52829,53.91704
60578,Skrzypiec,21.22564,50.54265
60899,Grudzeń-Kolonia,20.09736,51.42412
60913,Piaski,15.36023,51.85342
61123,Kaczyniec,18.29935,54.79574
61623,Ryczów-Kolonia,19.57861,50.43432
63296,Sanie,16.93477,51.43204
63670,Małachowo,22.38249,53.22756
64032,Janówka,18.08461,51.15680
64270,Budy,17.50894,52.14924
64661,Pomorzany-Kolonia,21.11963,51.24084
64915,Kędrzyno,15.45499,54.06450
65271,Szychowice Nowe,23.99137,50.67793
65552,Podkaszczor,19.75809,50.59277
65641,Rynowo,19.74419,53.07826
65748,Sierakowo,20.16163,52.78011
66220,Potasie,21.74399,53.37695
66380,Boży Dar,22.65968,51.01066
66384,Trojanówek,22.52211,52.75753
66676,Tarmno,16.35467,53.68366
66980,Pałecznica,22.67458,51.48131
67153,Pomocnia,20.98733,52.61152
67256,Gola Górowska,16.46826,51.66175
67416,Wygoda,23.54441,52.75069
67810,Bystre,23.12118,52.59779
67977,Kaski,18.29902,51.34002
68321,Święte Laski-Kolonia,19.98389,51.93378
62084,Jażdże,15.81565,54.13379
62098,Stary Waliszew,19.63872,52.03552
62151,Iłówiec,16.80750,52.16951
62322,Zambrzyce-Plewki,22.56533,53.08368
62367,Pieczyska,21.02244,51.92227
62629,Mikowice,16.60832,50.44305
62719,Dobrów,18.67131,52.14171
62869,Bukowa Mała,23.52352,51.29160
63074,Kurejwa,22.37003,53.62300
63075,Węgorki,16.15766,54.06088
63766,Kątne,20.75586,52.60081
63830,Stara Wieś,20.51320,51.77960
64062,Hipolitów,21.07693,51.92335
64114,Wilamowice,20.27803,52.59769
64515,Czerwona Karczma,20.85976,51.82261
64859,Zakupie,18.27754,52.65845
64861,Seligi,19.63010,52.10667
64946,Brodacze,22.29185,52.36857
65048,Skokówko,17.26000,51.94169
65129,Rudy,17.80320,52.36892
66109,Rzymiec,20.48531,51.74392
66175,Niwy,19.12962,51.31228
66421,Janki Młode,21.66343,52.98251
66477,Cierno-Żabieniec,20.19592,50.67494
66840,Bieczewo,17.68917,52.28417
66891,Szczawnik,20.86682,49.38401
67042,Nowojewo,17.35280,52.33029
67409,Oleszno,15.76801,53.47361
67781,Tosie,22.14569,52.62108
68411,Grabowiec,19.69776,51.17614
72782,Nadratowo-Bieńki,20.01845,53.02205
72832,Gracze,17.55101,50.69575
72877,Jedlice,18.18154,50.70432
72909,Żarówka,19.67222,52.87746
74148,Kolonia Dąbrowice,18.74455,51.29564
76604,Rozstajne,21.49215,49.50515
73121,Budki,22.36043,54.15982
76599,Tyrkło,21.83200,53.84426
171,Mysłowice,19.13387,50.24998
885,Skórzec,22.12890,52.10711
1530,Rurzyca,14.77769,53.48367
1654,Komańcza,22.06963,49.33578
1840,Radwanice,15.94651,51.56336
2070,Widuchowa,14.39036,53.12792
2131,Połczyn-Zdrój,16.09435,53.76552
2188,Kiwity,20.77331,54.10000
2240,Rusinowo,16.51995,54.51233
2357,Godów,18.48228,49.91931
3572,Lipnica Górna,21.35833,49.78738
3830,Ściejowice,19.78114,50.00448
6551,Cedzyna,20.72242,50.86747
7595,Starkówiec Piątkowski,17.41209,52.19899
8074,Ostrowo,17.97529,52.44243
8589,Pruchna,18.68620,49.86526
10351,Stefanowice,16.02702,52.25450
13735,Toporzyk,16.04711,53.69349
16742,Berdyszcze,23.79185,51.18022
21587,Bukowiec,22.40537,49.30550
22472,Trzebiatkowa,17.30611,54.06427
22859,Brzeźno,16.60789,53.81092
23615,Kraśnicza Wola,20.57520,52.11897
24416,Kraśnik,15.64701,53.24096
24630,Jakubów,20.64202,51.83271
24966,Jaroszówka,21.73268,50.78508
25089,Wieszczyce,19.37818,52.30475
25464,Rumianka,20.67185,52.01437
25740,Gniewosz,16.06874,53.35002
25869,Sulerzyż,20.45841,52.85632
26067,Nowy Sławoszew,19.15663,52.15579
26225,Stawiany,17.18304,52.61552
27776,Wola Nakonowska,19.07188,52.52662
28350,Połoski,23.44116,51.94149
28790,Strzelinko,16.95991,54.51974
29087,Marysin,17.69468,52.47266
29140,Górskie,22.81155,53.74770
29188,Wilkus,21.92981,54.14376
29504,Michałki,21.75855,51.75924
30045,Dymitrów Mały,21.51204,50.49073
30221,Topczewo,22.89393,52.84547
30277,Łobzowiec,17.34826,51.95507
30755,Kotków,19.60967,51.17119
30962,Stare Hołowczyce,22.95230,52.31073
31998,Mazaniec,18.86801,51.21532
32023,Gajęcice-Gajówka,19.00830,51.10456
32162,Czerna,14.88376,51.69304
32264,Wyręba,15.17273,51.15860
32502,Myśliniec,19.72278,54.23274
32722,Nowa Osuchowa,21.72599,52.74332
32982,Ośmiałowo,19.13025,52.83055
33142,Zagórzyce,18.93854,51.85903
33591,Kożany,23.15426,52.91567
33747,Witoszyn,15.10799,51.52215
33870,Podobowice,17.58889,52.85613
34352,Borki,19.41669,50.99455
34661,Mikuty,22.06070,53.55475
34801,Wężewo,21.84646,53.81526
35140,Dybowo,22.28808,53.67377
35461,Kwakowo,17.02343,54.36893
35604,Poczałkowo,18.65327,52.81967
36093,Katarzynów,19.60456,51.00574
36140,Galonki,18.71553,52.51179
36657,Jareniówka,21.44297,49.75108
36831,Mniszki,21.77573,54.31989
36855,Sokólnik,20.57782,53.06851
37082,Straszym,14.81126,52.95688
37153,Cychry,20.65193,51.89050
37172,Kopeć,18.17099,51.46689
37480,Glinica,20.08227,50.30231
37552,Zbożenna,20.70205,51.36516
38060,Kojły,23.48220,52.78292
38109,Parcice,18.33142,51.24045
38240,Przyrowa,20.48483,52.74489
38412,Niechodzin,20.58493,52.84798
38510,Choiny,21.41115,52.33644
38560,Potępa,18.66245,50.56550
38600,Tropiszów,20.21923,50.10439
39777,Huszczka Mała,23.31296,50.84690
39877,Łówcza,23.29445,50.29177
39993,Marysinek,20.23357,52.15620
40216,Dylewko,20.03807,53.52884
40372,Kobyłki,22.99935,51.35416
40575,Krzykały,20.08869,54.14059
41568,Tosin,19.19618,51.43952
41905,Księginice,16.26866,51.40967
42245,Kaczkowizna,19.73218,52.25613
42548,Rososz,21.17509,51.91334
42724,Stara Przysieka,16.63262,52.02542
42740,Molna,18.62231,50.77741
43637,Wierzchy,17.81124,52.06052
43871,Mystkowo,20.21916,52.70411
44056,Pawłowice,19.47564,52.17393
44306,Przyranie,18.19031,51.94311
44385,Żydowo,20.80319,54.25379
44599,Chełmiec,23.35365,50.96354
45744,Smędowa,15.59377,53.04161
45968,Kobusy,21.67753,51.69496
46357,Gonczary,23.88553,53.02611
46837,Święcienin,22.45886,53.43416
47011,Głęboczek,17.81075,52.69356
47216,Jedlec,17.96151,51.85477
47556,Swojków,17.13506,50.94240
47662,Stara Wieś,19.11651,49.90808
48436,Hrud,23.13656,52.09583
48735,Żeromin,18.57163,52.29032
48823,Czernica,17.64440,53.84085
48920,Gajówka,23.06778,52.48239
49056,Glewice,14.91410,53.60708
49287,Przyborowo,22.13618,53.50048
49332,Ubiedrze,16.53040,54.01780
49467,Paluchy,22.58606,50.21983
49595,Kotulin,19.86594,51.88276
50431,Uniedrożyn,16.40768,54.29784
50487,Długa Wieś,17.19529,52.78166
51030,Krakówek,18.28779,53.49306
51078,Markowice,17.22660,52.30422
51134,Ziemięcin,18.49678,52.45408
51408,Nowe Brynki,14.52290,53.29366
51839,Leszczydół-Podwielątki,21.38880,52.63215
52132,Wróblewo-Osiedle,20.33667,52.55877
52207,Graniczna Wieś,18.45608,54.16059
52241,Rychnów,15.12450,52.96021
52300,Pniewo,16.74531,53.48088
52882,Giżyn,20.33563,52.84884
52959,Łuby-Kiertany,21.87769,53.13799
53361,Mokrany-Gajówka,22.67194,52.34889
53614,Górki Duże,19.50286,51.56294
54194,Lipe Trzecie,18.01622,51.93932
54203,Stary Most,17.28379,53.94580
54347,Praga Dolna,21.50478,51.07802
54379,Łukówek,23.55710,51.29025
54509,Łosiniec,22.06955,51.99446
54587,Łowocie,23.13195,54.19582
54690,Piaski Sztumskie,19.31863,53.96894
55028,Płaczkowo,16.90097,51.88435
55118,Czeputka,23.38211,51.72285
55773,Przedmoście,16.16482,51.62810
55863,Wysocko Małe,17.84117,51.60849
55910,Cimoszki,22.68176,53.98562
56042,Brody Duże,20.08258,52.43293
56077,Ruda,19.65758,53.22475
56437,Wierchlesie,18.40753,50.56057
56504,Pakszyn,17.52049,52.42498
56640,Leśny Rów,21.49490,54.19839
56850,Łubnice-Krusze,22.30149,53.04616
57037,Trojany,19.18343,51.98407
57237,Czaple-Kolonia,22.52465,52.37395
57335,Gwarek,20.61490,51.32570
57588,Jarychowo,15.86403,53.05712
57606,Jeżewo-Wesel,20.16495,52.88212
58612,Kowalin,22.15821,50.90760
58796,Hruszew,22.71573,52.31940
58937,Trzcinisko,18.85471,54.30947
59374,Zaręby,21.01066,52.88722
59866,Antopol,19.55015,51.08362
60370,Zanie,22.83146,52.80956
60471,Gajewniki,19.01463,51.62981
60519,Żaboklik,20.70882,53.11185
60861,Jakubów,20.50666,51.86920
61420,Słoneczna,18.21531,51.77756
61514,Wygoda Smoszewska,20.51500,52.43828
61521,Gile,20.87690,54.23082
61879,Reklinek,16.01249,52.15781
61901,Perki-Lachy,22.76478,52.96798
62165,Żelice,16.92660,54.22306
62304,Workiejmy,20.44089,54.18499
62463,Smolne,16.49281,51.50618
63350,Dąbrowa-Dzięciel,22.44236,52.89065
64326,Budki,22.10583,50.86030
64381,Żelisław-Kolonia,18.46152,51.63485
65399,Sokoliki,22.88785,49.09483
65570,Wiatrak,20.83534,54.25975
66312,Marianowo,16.87829,52.10497
66479,Kumiałka,23.28891,53.45081
67083,Czernice,20.73055,52.89369
67177,Józefowo,17.18333,52.10000
67259,Kulmaga,18.72730,53.74328
67261,Nadolnik,16.35626,52.73380
67785,Rokitki,17.67924,54.35586
68065,Goszyn,18.53922,54.26413
73130,Bidakowo,19.90482,53.00442
83011,Srocko,16.70238,52.21283
276,Łęka Opatowska,18.09905,51.21464
296,Kramsk,18.42780,52.26373
1653,Bukowsko,22.05884,49.47717
2179,Iława,19.57128,53.59370
2324,Racibórz,18.15351,50.05619
2366,Irządze,19.67621,50.62800
2667,Pogódki,18.32525,54.02486
2719,Izbiszcze,22.86765,53.08223
5482,Tawęcino,17.79823,54.65548
5723,Kotorydz,20.87231,51.99987
10221,Wierzbica,21.07460,52.53556
11004,Skibniew-Podawce,22.18706,52.49611
12353,Derkacze,15.82084,53.00701
12728,Osiek Wielki,18.30390,52.97454
13273,Kuźnica Masłońska,19.40312,50.45552
15099,Pękowice,19.90341,50.12510
15658,Cerkiewnik,20.40329,53.91426
16674,Zielkowice,19.95294,52.08691
17066,Pełkinie,22.61855,50.06370
17734,Stobno,14.43286,53.41340
19014,Celejów,21.36102,51.85945
19105,Leszna Górna,18.72681,49.69157
19788,Małszewko,20.90139,53.70082
20003,Pewel Mała,19.28380,49.67030
21099,Ręczyn,14.97914,51.03515
23529,Nogat,19.09368,53.56777
23746,Serby,16.11527,51.68431
24376,Zapora,17.71938,53.77627
24394,Małczew,19.70211,51.77551
25339,Rakowiska,19.18401,54.16413
25639,Wierzbna,17.27785,50.66486
25868,Samsonowice,16.70826,51.04530
26234,Ostaszewo,20.80904,52.77289
26485,Przedłęcze,18.48623,51.47008
26783,Piecuchy,21.06797,53.48158
26835,Nowe Karpno,17.79630,54.11047
26986,Starczów,16.93140,50.55525
27001,Stara Korytnica,16.04279,53.30533
27114,Stefanowo,15.97331,52.23393
27220,Podtrzcianka,23.36047,53.46288
27560,Łazów,22.43505,50.34167
28015,Puszno Skokowskie,22.04121,51.09486
29320,Wiktorzyn,23.08111,52.88803
29365,Busieniec,23.71508,50.95409
29772,Nowa Wieś,16.45758,53.00099
29854,Gliniany Las,20.40626,51.02356
29862,Wólka Pukarzowska,23.66085,50.53188
30092,Wawrzka,21.00542,49.57244
30409,Stary Przybysław,15.74395,53.77492
31032,Gładyszów,21.27568,49.52577
32132,Henryczyn,21.55589,51.83775
32574,Parnówko,16.02828,54.18026
33377,Zawitała,22.12726,51.66857
33410,Jeziorko,19.84919,51.77269
33662,Antoniówka,22.91143,50.95890
34225,Tablewo,23.21846,53.51944
34623,Psucin,20.78520,52.51763
34683,Siodło,21.70106,52.08840
35590,Dulcza Mała,21.22820,50.21044
35909,Turczyn,23.09000,53.09704
36687,Stypin,18.81609,52.34318
36701,Majkowice,20.47634,50.16910
36753,Parnica,14.72753,53.11864
36975,Świnna,18.01309,52.39146
37207,Smorzewo,19.62520,52.76197
37441,Budy Barcząckie,21.62950,52.16060
38413,Gołębowo,16.86491,52.60770
38516,Sułocin-Towarzystwo,19.59242,52.86854
38587,Ludwinów,21.08507,51.34667
38879,Koserz Nowy,19.06599,52.26353
39579,Dzigorzew,18.71683,51.61509
39634,Klimontówek,20.05780,50.51438
39757,Przeździecko-Mroczki,22.25408,52.88531
39846,Duraczewo,15.62612,52.74184
39939,Przyłubie,18.32259,53.05249
40497,Miłosław,23.62927,51.23621
40589,Mleczkowo,21.49834,53.95878
41517,Białuń,15.14756,53.45380
41636,Badowo-Mściska,20.55752,51.96272
41673,Lubin,19.92112,53.86879
41910,Kobylin,20.88278,51.88345
41969,Chajew,18.49813,51.51880
42516,Łączka,21.95447,52.13681
42530,Rdutów,19.22787,52.30997
42625,Sucha Dolna,15.66238,51.57224
42789,Łapczyce,16.83592,51.45375
42797,Zielonka,18.56814,52.43867
43010,Śleszów,16.53935,51.54959
43109,Wojszyn,18.01250,50.87306
43418,Pniewite,18.66547,53.32228
43631,Bieganowo,17.22285,52.27818
43654,Rudniki,17.17145,53.82624
43664,Niedarzyno,17.43097,54.21951
43913,Garlica Duchowna,19.92613,50.14454
43966,Stare Obłuże,18.51485,54.56475
44049,Jaraczewo,15.25694,53.13889
44424,Długie,18.75384,52.39934
44467,Sokola Góra,19.83428,51.05569
44567,Szóstka,22.78332,51.87999
45235,Julianów Raducki,20.31640,51.83764
45599,Konstantów,20.58828,52.16826
45839,Kopytów,20.67198,52.20580
45905,Popielina,18.38765,51.38797
46209,Bronowo Kmiece,19.71334,52.62151
46485,Cywiny Wojskie,20.20115,52.69657
46938,Studniczka,16.23172,53.48602
47052,Kampinos A,20.47694,52.26511
47069,Dębczyna,22.19613,51.55578
47159,Balików,19.70330,52.23482
47466,Włoczewo,19.63891,52.66678
47470,Biłgoraj,19.31511,51.27768
47675,Konary,20.83531,50.43489
47717,Jasień,20.11765,51.81106
47922,Goździówka,21.48504,52.27215
47975,Kubice,17.43157,50.47724
48205,Ruda Zajączkowska,20.32144,50.87283
48261,Chycza-Brzóstki,20.05562,50.68389
48447,Przychów,14.99711,51.91631
48769,Alfonsów,19.15223,51.72162
49123,Rębieskie,18.87108,51.65366
50306,Dąbrówka,20.93340,51.60296
50529,Sławkowo,18.67823,53.13616
50693,Niekłań Mały,20.62051,51.16751
50976,Bolesławowo,18.16074,52.41044
51356,Przywodzie,15.43354,53.15571
51479,Lipa,19.59835,51.91767
51715,Jagodno,20.85412,51.45355
51737,Złaków Kościelny,19.81545,52.19703
51945,Rudnica,15.19251,52.60881
52168,Popielewo,18.30768,52.44283
52170,Krzesk-Królowa Niwa,22.61462,52.06392
52292,Żuków,20.41303,51.98757
52347,Maryniec,16.96343,53.22536
52753,Wólka Tuczępska,23.53683,50.88126
53176,Dunino,16.08883,51.15459
54115,Łukawica,22.23296,51.54046
54198,Leszczany-Kolonia,23.58425,50.99688
54284,Grabowo,20.96784,53.04760
54436,Małgorzacin,23.19849,51.81295
54467,Czuchów,22.79417,52.28052
55031,Morgowniki,21.86109,53.23265
55201,Stawiec,19.01449,54.14573
55587,Karcze,16.26280,52.97390
55642,Omule,19.84108,53.49354
55811,Kuzie,20.89154,50.24195
55849,Woziwoda,17.91887,53.66400
56194,Mychów-Kolonia,21.28992,50.91088
56393,Luberadzyk,20.47249,52.73749
56553,Zasań,20.05883,49.82554
56863,Ojcowizna,21.53819,52.63722
56885,Kozilas,19.89823,53.16036
57275,Borowiec,17.55344,51.97363
57355,Dzierlin,18.67926,51.62811
57596,Sitno,17.79195,53.19879
57697,Koźmin,18.30781,54.00760
57896,Chodorówka Nowa,23.12728,53.54472
57935,Bołtryki,23.78257,52.94337
58026,Brody,20.35503,51.16069
58069,Miaskowo,17.39417,52.99181
58236,Zagórzyce Dworskie,20.04254,50.18084
58805,Lutomski Most,17.84564,53.69602
58919,Ocieszyn,16.81962,52.60441
59019,Dębowa Góra,19.97237,51.30981
59949,Igrzyczno,17.94194,54.42861
59984,Polskie Stwolno,18.66300,53.44432
61001,Rostkowice,20.21519,52.45597
61193,Sadowo,21.05253,53.84994
61246,Górki,15.64968,53.13890
61913,Ligota Mała,16.81404,50.67223
61939,Nowy Antonin,22.43356,51.57655
62179,Klusiny,18.69393,51.24953
63338,Edwardowo,20.63560,51.88277
63507,Czechowizna,22.88581,53.34539
64094,Święte,15.10289,53.31628
64320,Czekanka,19.26539,50.49477
64322,Konopki-Pokrzywnica,22.60231,53.14847
64759,Obręb,19.51388,52.73379
64788,Dobrzyń,17.24147,53.74625
64975,Okolusz,19.77715,52.42397
65147,Wola Bokrzycka,20.89056,50.60587
65584,Suchomiła,23.80333,51.12572
65684,Teremiski,23.76752,52.73168
66000,Ostrówka,21.44736,51.25545
66131,Doły Brzeskie,19.62978,51.47968
66605,Rostołty,23.13004,52.96550
66843,Zapustek,18.69219,52.78302
67643,Arciechów,20.09778,52.37192
67882,Pytowice,19.45301,51.19005
68395,Bazylia,19.11734,52.12419
69309,Cząstkowo,18.44192,54.14592
76449,Biebrówek,14.91221,53.68360
83029,Szczeblewo,18.02033,53.99931
712,Mogielnica,20.72419,51.69278
1565,Roźwienica,22.59473,49.95211
1960,Lipnica,17.40877,53.99582
2386,Lewin Brzeski,17.62224,50.74775
2977,Goniądz,22.73371,53.48749
3003,Przerośl,22.65824,54.25238
3270,Chwaszczyno,18.42133,54.44252
3734,Drużyna,16.82580,52.21053
4954,Żarnowska,17.53093,54.72363
5119,Rogoźnica,21.94802,50.10937
5167,Nieskórz,22.04725,52.77406
6857,Sokolniki-Las,19.36694,51.94853
6878,Nieszkowice Małe,20.32361,49.93780
7978,Kwieciszewo,18.05208,52.62126
8256,Nadolice Wielkie,17.23930,51.08508
9028,Więcmierzyce,17.45450,50.62075
11097,Chociszew,19.24940,51.92461
11281,Długie,22.05047,49.57382
12040,Zachowice,16.78716,50.98430
12412,Popów,19.98191,52.12148
12442,Leonów,19.91427,51.46005
13200,Nowe Gonne,16.66261,53.80105
13548,Suponin,18.23643,53.26463
14296,Ołobok,18.07144,51.63440
15361,Gołuchowice,19.77403,49.94038
17121,Feliksów,20.30196,52.23767
19944,Zuski,20.42125,51.70210
19983,Zosin,24.12126,50.85986
22280,Grabowo,21.22613,53.80038
22355,Powidz,16.48717,54.18404
22686,Żerczyce,23.08303,52.47285
22838,Poborszów,18.08392,50.37533
23932,Kopaliny,20.46939,49.93685
24238,Czołpin,18.64747,52.71705
24367,Kulczyn-Kolonia,23.33012,51.37925
24482,Kątki,17.36536,53.75358
24531,Kazimierówka,23.77860,51.06801
24764,Miodary,17.73622,50.98884
24802,Niewiesze,18.48955,50.39912
25066,Ważyny,20.40732,53.30085
25090,Holendry,23.79663,51.03367
26295,Krasnodęby-Rafały,22.33256,52.37459
26617,Naryjski Młyn,20.01427,53.96498
27530,Konstantowo,17.59963,53.27170
27712,Żbiki-Gawronki,20.90538,52.94392
27799,Smuniew,22.38808,52.32444
27930,Biernatki,17.10793,52.22758
28631,Bystrzyna,15.79462,53.81968
28742,Smolany,23.20158,54.17935
28875,Roszkowo,17.18398,52.70365
28962,Mieczkówka,22.07672,54.18918
28981,Pereszczówka,22.93220,51.92474
29523,Kunki,19.66448,52.39509
29538,Huta Mińska,21.56903,52.15514
29559,Wolwark,17.69319,52.99742
29833,Rogów,23.51659,50.80173
30881,Wyciążkowo,16.62359,51.90312
30948,Michałów,19.74653,50.77489
31332,Ludwinów,17.61755,52.03325
31629,Gośniewice,20.95191,51.79603
31820,Pawły,20.36571,54.23429
32159,Mały Las,19.91861,53.13475
32247,Ciotusza Stara,23.19050,50.47866
32436,Lekarzewice,18.79840,52.64151
32880,Podwódka,19.26079,51.35016
33064,Jabłonowo,22.75203,50.91307
33159,Gałkówka,21.77778,53.14701
33416,Karbowizna,19.42924,53.00300
33500,Stołpie,23.31908,51.17430
33860,Drozdów,15.05806,51.57846
33873,Wola Rusinowska,21.83364,50.35758
34380,Kotliny,19.71394,51.65645
35894,Szastały,23.09532,52.74382
35912,Ramułtowice,16.72712,51.09433
36457,Stara Łomża nad Rzeką,22.11061,53.16175
36738,Koprusza,19.91675,50.96601
36759,Czostków,20.16279,50.85666
37240,Augustynów,18.59299,51.72019
37878,Klice,20.51462,52.95974
39234,Witowiczki,18.43004,52.59339
39242,Bielin,23.76659,51.05016
39345,Grądy,22.96357,53.32771
39414,Czartki,18.15515,51.83396
39636,Borawskie,22.62621,54.10110
39710,Winniki,20.72874,52.61197
39716,Orzeszków,18.79495,52.02154
40011,Byszkowo,16.29371,53.49534
40217,Gajówka Prusicko,19.20000,51.03333
40381,Rychłowice,18.58822,51.18429
40544,Uniszowice,22.44362,51.25056
40741,Malice,23.75390,50.70987
40947,Bąk,17.95862,53.92121
41069,Widugiery,23.31668,54.20721
41423,Jaryszewo,16.52653,52.69181
41447,Świerczów,18.91441,51.45304
41628,Rybniki,23.13789,53.26497
41923,Żółcin,15.81660,53.59590
42023,Bieliny,20.95676,54.15704
42224,Mały Dólsk,18.38544,53.44707
42630,Zatoka,20.51744,50.04254
42937,Kwaszenina,22.65814,49.55257
43128,Brzezie,16.92474,53.83737
43262,Budziska,21.21318,50.37828
43447,Przysietnica,20.61973,49.51086
43544,Helenów,19.40196,51.39573
43826,Drwęck,20.18352,53.55295
44091,Humięcino-Koski,20.61887,53.00970
44829,Hołdowiec,20.50031,50.28316
45163,Wąsosze,20.52163,53.17223
45286,Bolejny,20.41046,53.47895
45673,Góry Małe,19.73695,52.47413
45719,Borki Prusinowskie,18.90343,51.74781
46052,Bieńkowo,20.16683,54.36121
46093,Kozów,14.74271,51.85924
46178,Watorowo,18.42866,53.29734
46206,Dąbrowa,21.64494,50.98685
46316,Słotwina,14.88111,52.16056
46389,Skoki,16.86424,53.61018
46404,Zimnowoda,21.78278,52.28183
46524,Juliopol,20.21193,52.29220
46839,Brzeziny,22.99730,51.29725
47417,Feliksów,20.43823,52.09641
47436,Kostów,18.14930,51.16517
47458,Tyszki-Nadbory,21.90008,52.98666
47503,Szymany,22.50909,53.62814
47591,Bolesławek,20.65048,51.99647
47659,Olszynka,21.44111,51.80083
48045,Zbierkowo,17.32247,52.45092
48063,Mateuszek,21.62822,53.87610
48083,Wilkowo,16.50146,52.39725
48180,Stary Wołów,16.63017,51.36306
48228,Moszyce,17.47720,51.37069
48321,Goraninek,17.43000,52.46000
48336,Dziadówki-Leśniczówka,19.46988,50.73037
48724,Pruszkowo,16.28937,52.11922
48804,Sypniewko,16.54319,53.46509
48948,Mrożewice,19.19516,51.97221
49101,Bartłomiejowice,18.74473,52.64815
49204,Bukowa,20.13855,50.88733
49416,Niziny,22.88567,49.87942
49741,Uścieniec,21.51455,51.81555
49792,Mieczyn,20.18682,50.91110
50187,Dzbądz,21.43680,52.84443
50658,Dargomyśl,15.37633,53.63339
50708,Rycica,21.22412,53.19094
50716,Pobiednik Mały,20.21021,50.07057
50857,Stachowice,16.55179,50.74239
50896,Korytowo,15.15123,53.59071
50940,Kijowice,17.51552,51.12704
51237,Grabowiec,18.33694,52.10450
51548,Kozubiec,17.50642,52.18216
51786,Aleksandrówka,22.76089,51.83898
52461,Ligota,17.69516,51.78619
52502,Pagórki,19.51975,54.25546
52819,Lipiny,21.73539,51.31034
52908,Wieruszów,16.52062,50.78209
52995,Miejski Las,21.34352,53.84048
53291,Białobrzeskie,22.74153,53.26833
53343,Świerczów,21.73387,50.25489
53653,Różanki,19.41340,53.68216
54082,Zakrzów,16.61549,51.24221
54545,Żencin,19.65796,51.15301
54677,Zaręby-Kramki,22.30606,52.88789
54725,Szarlota,17.95744,54.09960
54857,Orzechówko,18.84824,53.20802
54982,Sólca,22.74060,49.66131
55175,Mieszki Wielkie,20.64805,52.81854
55510,Probostwo Dolne,18.93659,52.75760
56102,Wałachowo,18.39389,54.07639
56170,Młyńczyska,20.41235,49.62456
56324,Piaseczno,18.77597,53.78969
56332,Babiak,20.36030,54.17136
56658,Wistka Królewska,19.22708,52.63479
57250,Jerzkowice,17.58216,54.32711
57599,Ożarów Drugi,21.94222,51.10702
58451,Chyże,23.39114,50.39565
58454,Drugnia,20.84444,50.65595
59079,Jakubowice Murowane,22.63363,51.27396
59230,Ślepkowo Królewskie,19.86429,52.59212
59240,Połom,21.35465,53.62566
59484,Rotki,22.60200,52.47306
59514,Aleksandrowo,22.79948,52.57733
60082,Przecławice,16.98377,51.32005
60230,Elizanów,19.07411,52.23626
60434,Chrościanka,22.86165,52.63845
60735,Pisklaki,22.87704,50.41295
60809,Stara Łubianka,16.68416,53.23065
61311,Grądy Zalewne,21.45651,52.77497
61386,Weremowice,23.41742,51.08914
61800,Średnia,22.57394,49.82874
61970,Chodorążek,19.26609,52.88564
62136,Rąbity,19.63370,53.81540
62272,Januszówka,18.69635,51.90037
62300,Nowy Folwark,17.45351,51.72203
62380,Świnobród,23.49806,53.10583
62557,Łęg,20.54920,53.22088
62666,Marianowo,16.94120,52.53832
62945,Trojanka,16.83155,53.00361
63298,Bajtkowo,22.26038,53.74077
64004,Sukmanie,20.81593,49.90201
64478,Lisiak,20.54494,54.23182
64617,Stary Gromadzyn,21.95775,53.41659
64623,Czartów,15.05610,52.60020
64735,Dołubowo,22.87677,52.60808
65626,Radolina,18.04737,52.21559
65987,Hipolitów,20.32608,52.07170
66073,Złota Woda,21.04614,50.77881
66204,Kujakowice Górne,18.25178,51.00594
66313,Lutobrok-Folwark,21.24790,52.66891
66599,Bielawy,16.87792,51.85738
66908,Józefów,23.54740,51.35739
67248,Brzeźnica Książęca,22.74416,51.55948
67710,Szlasy-Umiemy,20.84654,52.93132
67994,Sobaków,19.56575,51.24280
72842,Sewerynka,21.45764,52.77515
74137,Maciejowizna,19.76074,54.07366
83049,Kula,17.84639,54.06222
548,Zakopane,19.94747,49.29631
983,Buczek,19.16603,51.50288
1288,Białobrzegi,22.32475,50.10007
1996,Dziemiany,17.77314,54.00688
2217,Dobre Miasto,20.39516,53.98678
2506,Bobrowniki,18.95528,52.77886
2744,Sosnówka,23.33922,51.75086
4732,Mnichowice,17.09187,50.98156
5409,Postołów,22.30809,49.49464
7245,Łazy,20.87075,52.08446
8864,Karpicko,16.12676,52.12976
10460,Samborowo,19.81901,53.66547
10692,Warzenko,18.35977,54.42387
10755,Lesznowola,20.90152,51.91221
11308,Wołyń,19.47983,51.88976
12176,Zabawa,20.09297,49.99378
13742,Ogrodno,16.13090,53.73038
14886,Zaczernie,22.00462,50.09327
15522,Bogoniowice,20.95928,49.79986
15804,Różnowo,20.50633,53.85790
16010,Palczewice,16.47099,54.47080
17888,Skrzeszewo,18.34978,54.28540
17908,Dąbrówka,21.36096,52.06697
19135,Giełczyn,22.08798,53.13362
20297,Pawliczka,21.43238,51.15712
21978,Cieksyn,20.66821,52.57251
22020,Ignatki,23.12263,53.08969
22089,Popowo Salęckie,21.35099,53.90228
24331,Głażewo,18.39815,53.18786
24345,Sierki,22.73388,53.17780
24652,Płosków,17.63588,53.38671
25015,Zakrzewo,22.99375,52.81232
25237,Wólka Horyniecka,23.32962,50.17298
25463,Chomiąża,17.66704,50.10860
25528,Kamień,15.12451,52.06237
25597,Czeberaki,22.85309,52.20942
26119,Jezuicka Struga,18.29873,52.93878
26238,Karsy Duże,21.05684,50.38405
26370,Piątków,21.72677,51.44274
26429,Ryszewek,19.21533,52.81254
26537,Robertów,19.69933,52.33137
26915,Grapiczki,17.40321,54.51353
26927,Zielonka,22.17071,50.83367
27089,Turze,18.26664,50.19263
27722,Miejsce,19.51085,50.01716
27942,Wągry,19.85200,51.79090
28050,Żydowo,17.65382,52.23004
28146,Będziechowo,17.29362,54.58848
28330,Świerczyna,18.22819,51.58279
28357,Miłocin,18.81476,54.26749
28643,Komorowo,17.08961,51.36991
28841,Kalinówka Kościelna,22.93886,53.38505
29134,Kłódka,18.91062,53.51086
29335,Gbiska,21.77027,49.86284
29791,Kobylin-Pieniążki,22.67217,53.10357
30086,Miechowice Duże,18.82830,52.62354
30624,Piertanie,23.04374,54.08730
30866,Nowe Dłutówko,20.99021,53.47528
30934,Danków,18.10182,52.38605
30940,Zimnica,17.39190,51.15469
31165,Dębnica,21.45854,51.29298
31676,Szczepanki,19.75170,52.77075
31867,Łuniewo Małe,22.46499,52.73754
32141,Dybów,18.78540,51.82671
32354,Starocin,19.18958,54.22170
32419,Wolica Uchańska,23.47646,50.82792
32629,Warmiaki,21.66109,52.46271
32808,Żerechowa,19.75291,51.23250
33038,Ostrowite,18.98712,53.14312
33419,Brzostów,17.41503,51.97209
33421,Marywil,20.84726,51.25893
34132,Trzcianka,20.98043,51.75031
34454,Bobrowo,16.06766,53.52252
34612,Rzepiska,23.56216,52.83163
34726,Kopiec,21.40195,51.28762
34751,Szyszków,18.43661,51.02841
35074,Charbrowski Bór,17.57056,54.70074
35334,Pestkownica,16.04000,53.01678
35416,Niewikla,20.48011,52.63172
35811,Bindużka,21.33498,52.79215
35950,Tarnawa,19.85081,50.27372
36100,Piętków,19.43924,51.52800
36616,Lasocin,15.69248,51.72976
36764,Żuków,15.10735,53.15684
36862,Popień-Parcela,19.92057,51.79289
37682,Jeleniec,22.26480,51.86203
38089,Drwęczno,20.08097,54.11035
38175,Chodków,21.38528,51.66909
38440,Sworzyce,16.26555,52.26549
38451,Lesk,22.51259,54.01547
38457,Grądki,19.84691,54.04250
38483,Dobre-Kolonia,18.54473,52.67354
38728,Włóczyska,19.66162,54.26736
39469,Chodaki,18.72232,51.22894
39512,Wąsoszki,17.01639,53.30477
39753,Rozynów,19.10670,51.89225
39810,Polska Wieś,17.30019,52.47468
40465,Łykoszyn,23.83327,50.56206
40911,Orliska,21.84565,50.64152
41310,Kłodobok,17.21299,50.55533
41311,Borki,19.62326,51.84777
41440,Nowe Piegłowo,20.54237,53.05769
41968,Orłowce,16.54578,53.87246
42164,Bojewo,21.96152,52.59316
42238,Czerwona Górka,20.85407,54.21810
42262,Zaręby-Grzymały,22.28993,52.88195
43388,Breń,15.76733,53.08273
43845,Szczeglin,20.99711,50.41442
43962,Miszewo,17.06295,54.26565
44163,Krowica,23.17674,51.16376
44231,Pobórka Mała,17.10755,53.15110
44245,Szczyty,20.97371,51.64694
44360,Chwarstno,15.45591,53.54080
44472,Napole,18.45529,53.25865
44782,Chrabków,20.66706,50.53649
44916,Wola Górzańska,22.36964,49.31053
45044,Jadeszki,22.93823,53.50267
45210,Aurelin,23.67401,50.93426
45462,Sitowa,20.33882,51.33758
45781,Eliaszówka,19.94267,50.94574
45791,Babice Nowe,20.84763,52.24173
46411,Smardzew,19.47085,51.86996
46428,Dylewo,20.02413,53.53959
46572,Mikulin,22.17944,50.88334
46804,Młodzianowo,20.84129,52.54635
46940,Lipniak,23.06194,54.14563
