id,name_pl,lon,lat
1,Stare Miasto,17.01434,51.10874
2,Śródmieście,17.08127,51.11324
3,Krzyki,17.05319,51.07855
4,Psie Pole,17.03559,51.14586
5,Fabryczna,16.98647,51.11228
7,Brętowo,18.56000,54.36000
8,Brzeźno,18.62627,54.40277
10,Kokoszki,18.49196,54.35410
12,Letnica,18.65338,54.39097
13,Matarnia,18.47277,54.38282
14,Młyniska,18.64898,54.37064
15,Nowy Port,18.66599,54.40085
16,Oliwa,18.56375,54.40736
17,Olszynka,18.67773,54.33012
19,Osowa,18.47781,54.41978
23,Rudniki,18.70745,54.33941
24,Siedlce,18.61714,54.34709
27,Suchanino,18.60320,54.35477
28,Śródmieście,18.65637,54.34961
30,Wrzeszcz,18.59636,54.37822
36,Bemowo,20.91133,52.24091
37,Białołęka,21.00768,52.32899
38,Bielany,20.92866,52.29332
39,Mokotów,21.01715,52.19832
40,Ochota,20.96727,52.20997
41,Praga-Południe,21.08406,52.24168
42,Praga-Północ,21.02832,52.26330
43,Rembertów,21.14584,52.26307
44,Śródmieście,21.01900,52.23313
45,Targówek,21.06537,52.28238
46,Ursus,20.88379,52.19512
47,Ursynów,21.02912,52.13785
48,Wawer,21.17823,52.19622
49,Wesoła,21.05509,52.15177
50,Wilanów,21.11163,52.15613
51,Włochy,20.94782,52.17991
53,Żoliborz,20.98462,52.26971
54,Bieńczyce,20.02970,50.08872
56,Czyżyny,20.01648,50.06938
57,Dębniki,19.86237,50.01406
58,Grzegórzki,19.97356,50.06439
59,Grębałów,20.07504,50.09649
60,Łagiewniki,19.93920,50.01839
61,Łobzów,19.91154,50.07512
62,Mistrzejowice,20.00665,50.10361
63,Nowa Huta,20.02289,50.07707
64,Podgórze,19.94331,50.03765
65,Prądnik Biały,19.92886,50.09341
66,Prądnik Czerwony,19.95969,50.07958
68,Swoszowice,19.93967,49.97662
69,Stare Miasto,19.93820,50.06458
70,Wola Duchacka,19.96147,50.02393
71,Zwierzyniec,19.86095,50.05200
73,Chartowo,16.97551,52.38841
74,Dębiec,16.90590,52.36596
75,Fabianowo,16.84942,52.36742
76,Franowo,16.98838,52.37856
77,Głuszyna,16.95062,52.32002
78,Górczyn,16.87281,52.38540
79,Grunwald,16.87200,52.39591
80,Jeżyce,16.84479,52.43655
81,Junikowo,16.83784,52.39079
82,Karolin,16.98521,52.43142
83,Komandoria,16.96603,52.40569
84,Kotowo,16.85607,52.35718
85,Krzesiny,16.98495,52.34536
86,Ławica,16.82059,52.41066
87,Łazarz,16.89380,52.39409
88,Malta,16.96358,52.39865
89,Marcelin,16.87895,52.40373
90,Naramowice,16.94658,52.45695
91,Nowe Miasto,16.98658,52.37832
92,Ogrody,16.87466,52.41572
93,Piątkowo,16.91912,52.45528
94,Podolany,16.88339,52.45718
95,Pokrzywno,16.98064,52.35557
96,Psarskie,16.80206,52.47242
97,Raszyn,16.87377,52.38951
98,Rataje,16.94080,52.38356
100,Sołacz,16.90384,52.42425
101,Spławie,17.01192,52.35454
102,Śródka,16.95325,52.41115
103,Stare Miasto,16.92186,52.41220
104,Starołęka,16.94376,52.38019
105,Strzeszyn,16.85045,52.45678
106,Świerczewo,16.88999,52.35675
107,Wilda,16.91707,52.37772
108,Winiary,16.90875,52.43315
109,Winogrady,16.93625,52.42658
110,Bałuty,19.46004,51.80644
111,Górna,19.42872,51.77640
112,Polesie,19.45495,51.69368
113,Śródmieście,19.46172,51.77095
114,Widzew,19.55717,51.76705
117,Wola,20.95718,52.23338
118,Rąbin,18.23000,52.78139
121,Łostowice,18.59097,54.31990
126,Pogodno,14.52061,53.43873
129,Tyniec,19.81717,50.01044
133,Sobieszów,15.64240,50.84657
135,Cisowa,18.43028,54.55026
136,Zaspa,18.60346,54.39408
138,Piaski,20.94492,52.27177
140,Przymorze,18.58935,54.41140
142,Zacisze,21.06320,52.28632
144,Wielki Kack,18.48745,54.46636
152,Lewandów,21.07423,52.32226
156,Orłowo,18.55311,54.48017
158,Śródmieście,19.97441,50.08850
159,Pomorzany,14.52734,53.40157
170,Dąbrowa,18.46071,54.47292
174,Bródno,21.03035,52.28633
182,Zdroje,14.63333,53.38333
183,Stara Miłosna,21.23520,52.21917
188,Powsin,21.10093,52.12497
191,Pychowice,19.88727,50.03164
194,Ligota,18.97347,50.22420
198,Stegny,21.04550,52.18125
200,Kiełpinek,18.52824,54.35365
201,Chylonia,18.46578,54.54445
217,Błonie,17.96702,53.11829
218,Górce,20.91371,52.24543
226,Słocina,22.05188,50.02147
228,Kliny-Zacisze,19.89048,50.00106
231,Gumieńce,14.46506,53.41076
233,Ujeścisko,18.58689,54.32875
234,Karwiny,18.49052,54.47443
236,Witomino-Radiostacja,18.50295,54.50358
241,Obłuże,18.51469,54.55493
242,Krzyż,20.98000,50.05000
244,Śródmieście,18.53639,54.51671
245,Ruczaj,19.91576,50.02321
253,Antoniuk,23.12950,53.14192
262,Wyżyny,18.03699,53.10434
265,Słoneczne,14.65118,53.37946
270,Górka Narodowa,19.95332,50.09764
271,Podjuchy,14.60000,53.36000
280,Kormoran,20.49830,53.76785
287,Czechów,22.54722,51.26556
291,Poręba,51.22361,22.51000
304,Śródmieście,18.00230,53.12868
306,Wirek,18.86671,50.26922
309,Dąbrówka Mała,19.08078,50.27702
312,Złotniki,16.89256,51.13533
315,Centrum,22.00379,50.03778
321,Winnica,20.94638,52.33919
330,Bytków,19.00415,50.30091
332,Przełajka,19.04385,50.34429
335,Mierzyn,14.38675,53.45611
336,Wola Justowska,19.84857,50.06130
337,Oksywie,18.54571,54.54865
339,Zamkowe,17.02704,53.92420
341,Kleparz,19.94050,50.06897
342,Krowodrza,19.92467,50.08769
348,Zakoniczyn,18.57629,54.32316
377,Dąbie,19.98243,50.06064
378,Piaskowa Góra,16.28452,50.80816
382,Osiedle Leśne,18.02752,53.13905
384,Dziesiąta,22.57684,51.20954
393,Rój,18.61464,50.03606
394,Centrum,18.70064,50.04472
418,Borek Fałęcki,19.91507,50.01103
423,Rogoźna,18.66000,50.03000
428,Centrum,17.02848,54.46415
433,Stawki,18.63655,52.98805
449,Ksawera,19.14320,50.32479
451,Karczemki,18.51075,54.35171
461,Centrum,15.50619,51.93562
465,Służew,21.00917,52.17500
466,Zawodzie - Dąbie,19.17093,50.71579
474,Witomino,18.51060,54.49698
480,Bukowo,14.57039,53.49289
482,Śródmieście,14.57821,53.41312
495,Janów,19.56789,52.22281
512,Kochłowice,18.91020,50.25778
514,Gocław,21.08000,52.23000
525,Bugaj,19.30526,50.39408
537,Tarninów,16.15597,51.19884
546,Śródmieście,21.15759,51.40082
549,Żelechowa,14.57885,53.46028
552,Centrum,18.79481,52.87905
569,Zatorze,18.70787,50.30512
587,Zagórze,19.19890,50.29957
588,Nowe Ujeścisko,18.59110,54.32623
589,Groszowice,17.94887,50.62798
590,Nagórki,20.49327,53.75620
594,Salomea,20.92528,52.18694
596,Jelitkowo,18.58604,54.42281
598,Redłowo,18.54911,54.49192
599,Ustronie,21.15943,51.38267
621,Śródmieście,22.55396,51.25034
626,Żubardź,19.42564,51.78570
628,Baranówka,21.97292,50.05745
629,Dąbrowa,19.35759,51.59577
633,Raków,19.15843,50.77786
642,Bacieczki,23.08815,53.14407
650,Centrum,18.79481,52.87905
656,Mikulczyce,18.75521,50.33507
668,Pieczewo,20.51420,53.74357
689,Kazimierz,19.94348,50.04998
700,Pogoń,19.12424,50.29465
703,Stare Miasto,18.65183,54.35586
707,Karłowice,17.06012,51.13846
712,Teofilów,19.36800,51.45798
714,Koziny,19.42679,51.77769
715,Centrum,20.93623,52.39925
718,Chojny,18.52772,51.34605
721,Centrum,19.94956,49.29910
724,Powiśle,21.02935,52.23805
726,Grochów,21.08464,52.24671
727,Sadyba,21.06110,52.18748
728,Kabaty,21.08000,52.13000
729,Szwederowo,17.98932,53.11239
730,Nowodwory,20.94234,52.33292
731,Wyględów,20.99274,52.20003
732,Kamionek,21.05382,52.24511
741,Maślice,16.94222,51.14306
742,Jelonki,20.95755,52.08086
743,Natolin,21.07361,52.13889
744,Koło,20.94694,52.24417
746,Retkinia,19.40120,51.74589
747,Olechów,19.57277,51.74430
748,Karolew,19.24058,51.86663
757,Centrum,16.47568,50.84984
785,Giszowiec,19.06971,50.22263
787,Pustki Cisowskie,18.44722,54.53639
789,Warszewo,14.53756,53.47407
792,Centrum,22.56845,51.24645
793,Bonin,16.90697,52.43092
799,Struga,21.05999,52.28194
801,Zarzew,19.51724,51.74647
803,Chomiczówka,20.91240,52.27443
808,Gaj,17.04203,51.07916
816,Brodwino,18.53226,54.45683
817,Stogi,18.77065,54.36226
818,Doły,19.49193,51.78678
826,Baranowice,18.70573,50.03713
832,Nowe Miasto,16.29277,50.77091
840,Centrum,19.10408,50.28626
843,Rokitnica,18.78633,50.36249
844,Ugorek,19.98230,50.07620
847,Saska Kępa,21.06051,52.23059
854,Bronowice,22.58504,51.23579
859,Gąsin,20.78888,52.16977
863,Bykowina,18.88715,50.27665
870,Stare Miasto,14.55967,53.42434
874,Biały Kamień,16.25497,50.78616
877,Umultowo,16.93500,52.46767
884,Lipniak,22.45066,51.24302
887,Felin,22.63522,51.22410
890,Strusina,20.97000,50.01528
892,Michalin,21.22465,52.14799
894,Miłosna,21.26901,52.25242
914,Abramowice,22.57424,51.19333
919,Morena,18.58359,54.35968
920,Boguszowice,18.60147,50.06322
924,Sielec,19.15586,50.27915
926,Stary Sosnowiec,19.10928,50.28499
930,Środula,19.15461,50.29374
952,Śródmieście,18.90616,50.35454
955,Dawidy Zwykłe,20.98556,52.13083
959,Leszczynki,18.48455,54.52794
961,Muranów,20.99860,52.24928
963,Młynów,20.96568,52.24457
969,Piaski,19.08902,50.30022
970,Piotrowice,18.96141,50.20225
971,Bezrzecze,14.45755,53.45734
972,Michałkowice,19.02957,50.32643
975,Kamienna Góra,18.54624,54.51214
978,Planty,21.14764,51.39404
980,Wrzosy,18.58000,53.05000
984,Bielawy,18.05309,53.13187
990,Michałów,21.15722,51.43015
992,Ludwinów,19.92927,50.04270
995,Reden,19.20345,50.32048
998,Klimontów,19.17698,50.28047
1005,Warpie,19.14638,50.31807
1006,Małobądz,19.11996,50.30722
1010,Nowe Szkoty,18.62111,54.37944
1013,Chełm,19.84917,50.06750
1019,Dziesięciny,23.13427,53.15358
1021,Lipowica,22.74094,49.80883
1023,Syberka,19.11568,50.32065
1042,Zacisze,17.07600,51.12416
1046,Zaodrze,17.90019,50.67360
1047,Olsza,19.96044,50.07960
1057,Zatorze,20.48805,53.78867
1059,Działki Leśne,18.53256,54.50886
1061,Halemba,18.84990,50.24657
1063,Drzetowo,14.56988,53.44988
1065,Bielszowice,18.82285,50.26873
1066,Centrum,17.38985,51.21343
1074,Strzemieszyce Wielkie,19.24891,50.31167
1076,Bukowe,14.65348,53.36732
1078,Gołonóg,19.23344,50.33340
1084,Kosztowy,19.16369,50.18792
1090,Podlesie,18.96458,50.18399
1101,Śródmieście,18.53867,50.10186
1106,Piaski,23.15125,53.12340
1112,Byczyna,19.30957,50.16366
1115,Józefów,19.17738,50.30983
1116,Bogucice,19.03961,50.26885
1118,Klukowo,18.48000,54.40000
1121,Centrum,20.63509,52.10444
1132,Centrum,18.00844,53.12348
1135,Zabornia,18.59122,54.34473
1141,Śródmieście,17.93721,50.66695
1144,Babie Doły,18.54033,54.57813
1152,Centrum,18.53553,54.51880
1160,Pawłówka,19.66280,51.44002
1179,Jagodno,17.06005,51.05494
1180,Czuby,22.51856,51.23032
1181,Zabobrze,15.74694,50.91611
1185,Centrum,19.02378,50.26489
1186,Ligota,18.59110,50.09217
1187,Wielopole,18.54183,50.12432
1189,Kozanów,16.97114,51.13918
1190,Wojszyce,17.04227,51.06096
1191,Okęcie,20.96694,52.16556
1192,Kłodawa,15.21486,52.78719
1193,Pogórze,18.48863,54.55887
1194,Centrum,19.94498,50.06465
1195,Jasień,18.54038,54.33826
1196,Bugaj,19.37413,51.65666
1200,Śródmieście,16.28056,50.76500
1201,Dańdówka,19.17715,50.26683
1209,Koszutka,19.01530,50.27189
1215,Jachcice,18.01667,53.16667
1221,Jagniątków,15.61717,50.82211
1223,Górczyn,15.25495,52.76193
1226,Dąbie,14.66000,53.40000
1231,Centrum,15.23693,52.73253
1233,Matemblewo,18.55459,54.36483
1243,Muchobór Mały,16.97534,51.10664
1247,Osiedle Słoneczne,15.19366,52.72538
1251,Śródmieście,19.12347,50.27633
1252,Osiedle Staszica,15.21461,52.73996
1260,Chwarzno,18.45876,54.50009
1269,Centrum,18.78572,50.32493
1278,Borek,16.99909,51.08834
1285,Bańgów,19.03039,50.32882
1287,Dolny,18.55926,54.44539
1292,Wyścigi,18.56010,54.44158
1293,Murcki,19.04028,50.19986
1295,Księże Małe,17.08372,51.07688
1299,Biskupin,17.10001,51.10266
1300,Centrum,17.92130,50.67511
1302,Partynice,17.00083,51.06102
1304,Godula,18.87193,50.31305
1310,Centrum,19.27393,50.20499
1316,Grudzice,17.98941,50.65252
1318,Centrum,19.03962,50.29519
1320,Salwator,19.92158,50.05390
1324,Okole,17.95000,53.30000
1327,Nowe Miasto,21.00641,52.25350
1328,Kapuściska,18.05483,53.10585
1334,Śródmieście,15.56767,54.18006
1336,Zakrzów,17.12916,51.16209
1337,Radość,21.19279,52.18798
1347,Grabówek,18.51049,54.52427
1348,Gorzków,20.72500,49.60306
1362,Niebuszewo,14.55272,53.44817
1378,Centrum,20.48012,53.77842
1393,Centrum,15.58327,54.17592
1396,Nowe Miasto,22.00982,50.02688
1411,Śródmieście,19.02094,50.25685
1412,Rubinkowo,18.66257,53.02705
1417,Grabowo,14.57614,53.43966
1418,Przybyszówka,21.96115,50.05130
1419,Arkuszewo,17.63783,52.54157
1426,Mydlice,19.16739,50.31679
1428,Łęknice,19.21491,50.34816
1429,Starówka,18.65225,54.35061
1430,Orunia,18.63817,54.32014
1431,Ostrowy Górnicze,19.27265,50.29025
1436,Nowa Wieś Królewska,17.95190,50.64687
1443,Wróblin,17.90600,50.70476
1456,Zawarcie,15.22267,52.71893
1469,Kazimierza Wielkiego,19.09231,52.64719
1480,Kacze Buki,18.45461,54.44844
1485,Grodziec,19.07242,50.35001
1486,Brzezinka,19.15985,50.19962
1491,Kalinowszczyzna,22.58832,51.25171
1499,Rzędzin,21.02630,50.01907
1501,Rakowice,19.97582,50.07976
1502,Radogoszcz,19.41770,51.81923
1504,Paniowy,18.82385,50.20903
1506,Zwięczyca,21.97952,50.01017
1519,LSM,22.52933,51.24163
1526,Centrum,18.95372,50.29007
1549,Centrum,19.05838,49.82238
1564,Kłodnica,18.87853,50.24483
1582,ZWM,17.89882,50.66831
1600,Nowy Dwór,16.95107,51.11510
1606,Kolonia Gosławicka,17.99272,50.66178
1618,Kopernik,16.06667,51.65250
1624,Czwartek,22.57232,51.25500
1628,Kośminek,22.58798,51.22368
1642,Wełnowiec,19.02296,50.28229
1645,Witomino-Leśniczówka,18.50145,54.49287
1650,Korzeniec,19.18880,50.33535
1651,Batory,18.92612,50.26270
1652,Drabinianka,22.00391,50.01519
1663,Łagisza,19.13923,50.34732
1664,Centrum,18.90251,50.16932
1669,Porąbka,19.21838,50.28517
1682,Sielce,21.03100,52.20140
1687,Rębiechowo,18.46248,54.37242
1688,Żabianka,18.56804,54.42088
1696,Wólki,20.68639,49.61500
1702,Centrum,18.67138,50.29449
1715,Azory,19.90375,50.08806
1720,Ratyń,16.85728,51.13048
1722,Mały Kack,18.51926,54.48123
1726,Międzylesie,21.17603,52.20708
1730,Osów,14.51548,53.47536
1746,Białostoczek,23.15212,53.14610
1751,Pod Telegrafem,20.63988,50.84415
1752,Dobromyśl,20.53230,50.86533
1755,Centrum,17.03206,51.10965
1768,Szadółki,18.55091,54.32813
1827,Piaski,15.22426,52.75319
1833,Leśnica,16.89115,51.14455
1843,Szopienice,19.09798,50.26616
1851,Śródmieście,18.66964,50.29727
1857,Starówka,18.57941,50.30122
1871,Nowa Wieś,17.08555,52.41254
1888,Sikornik,18.65554,50.27472
1897,Centrum,15.74245,50.89884
1904,Niwka,19.16372,50.24353
1912,Zarzecze,18.94365,50.18923
1933,Chełm,18.61921,54.33990
1940,Centrum,20.81163,52.16610
1954,Centrum,19.13961,50.24259
1988,Szydłówek,20.63932,50.89104
1989,Centrum,20.71533,49.61745
1993,Dąbrowa,20.85754,52.33174
1996,Brynów,18.99021,50.23892
1997,Ślichowice,20.57765,50.88668
2006,Kamionka,18.92272,50.18739
2014,Baranówek,20.61130,50.85103
2015,Kochanowskiego,20.70307,49.63071
2022,Kępa Tarchomińska,20.92533,52.35059
2027,Nowa Wieś,19.91875,50.07028
2048,Centrum,19.07100,52.65729
2049,Centrum,18.56508,54.44398
2073,Klikowa,20.95772,50.03647
2074,Barwinek,20.62949,50.84939
2079,Rakowiec,20.96441,52.19720
2082,Centrum,20.63153,50.87157
2085,Grabówka,21.00371,50.02435
2087,KSM,20.64695,50.86812
2093,Śródmieście,15.22599,52.73821
2128,Chwałowice,18.55356,50.06229
2146,Zabłocie,20.99472,49.99778
2155,Chorzeń,18.22639,52.23035
2157,Górny,18.55926,54.44539
2160,Staroniwa,21.96020,50.02594
2161,Załęże,22.04244,50.05858
2164,Czarnów,20.57077,50.87833
2168,Ochojec,19.00288,50.21179
2170,Podzamcze,16.27713,50.82413
2188,Smulsko,18.66394,51.97332
2189,Grębocin,18.70008,53.05300
2191,Tarchomin,20.96070,52.31832
2199,Miedzyń,17.93123,53.13124
2204,Zakrzów,17.91927,50.68972
2211,Kowale,18.56161,54.30938
2217,Północ,19.14095,50.85392
2236,Rusinowa,16.32651,50.76310
2239,Osowa Góra,17.89917,53.16361
2249,Centrum,21.02849,52.07398
2264,Ostatni Grosz,19.13458,50.78706
2276,Różanka,17.02115,51.13615
2280,Grabiszyn,16.97927,51.09141
2283,Klimzowiec,18.95639,50.28250
2284,Pakosz,20.60939,50.85793
2298,Centrum,18.92207,50.34652
2300,Bielany,19.81569,50.03914
2311,Centrum,19.10778,50.81193
2313,Michelin,19.02259,52.60714
2330,Marianki,19.18601,50.36845
2339,Ponikwoda,22.58862,51.26966
2364,Staromieście,22.00062,50.06157
2366,Kokociniec,18.95888,50.23502
2367,Chropaczów,18.89931,50.31533
2368,Głębokie,14.47600,53.47820
2371,Zalesie Dolne,20.98824,52.05353
2398,Olszanica,19.83512,50.06751
2399,Wola,16.86218,52.42415
2423,Centrum,19.36411,51.66347
2442,Kurdwanów,19.95654,50.00953
2475,Wieczysta,19.98211,50.07367
2492,Załom,14.71807,53.42893
2495,Szczepankowo,17.01966,52.35975
2497,Zakamycze,19.83423,50.06366
2519,Zaborze,18.81682,50.29041
2550,Gumniska,20.99805,50.00861
2560,Skrzetusko,18.02796,53.12762
2568,Redykajny,20.43742,53.81064
2582,Centrum,22.70036,51.21994
2597,Ząbkowice,19.26306,50.36283
2603,Marymont,20.95000,52.26000
2612,Antoninek,17.02352,52.41149
2617,Kościelniki,20.17836,50.09179
2621,Książąt Pomorskich,14.55826,53.42622
2725,Centrum,16.57538,51.84342
2729,Klecina,16.97262,51.06200
2734,Ołtaszyn,17.02200,51.05657
2747,Polanowice,17.04736,51.16373
2748,Pawłowice,17.09835,51.16795
2750,Szombierki,18.87560,50.33591
2751,Sławin,22.50983,51.27162
2763,Trynek,18.66617,50.27268
2764,Łabędy,18.62930,50.34641
2765,Kopernik,18.65452,50.32144
2778,Stare Gliwice,18.60930,50.30424
2809,Wilkowyje,18.94129,50.14384
2814,Ołbin,17.05578,51.12319
2820,Kowale,17.10178,51.13207
2822,Centrum,19.12541,50.32560
2830,Pojezierze,20.50917,53.77562
2837,Miechowice,18.85721,50.36417
2839,Szczepin,17.00617,51.11674
2840,Muchobór Wielki,16.94777,51.09712
2843,Bieruń Stary,19.09147,50.09418
2845,Zalesie,17.08670,51.12083
2849,Majowe,14.67368,53.37732
2957,Gołąbkowice,20.71488,49.62538
3163,Wójtowa Wieś,18.63383,50.28488
3169,Ostropa,18.57789,50.28294
3196,Nowe Miasto,23.12127,53.10582
3216,Jędrzychów,15.51181,51.90454
3217,Rowień,18.64970,50.06749
3224,Tłoki,20.67531,49.60298
3256,Tarpno,18.82293,53.49769
3266,Brzezinka,18.57125,50.32375
3268,Centrum,18.26101,52.79492
3285,Winiary,17.60712,52.55239
3294,Lipce,18.63808,54.30292
3295,Huby,17.04125,51.08972
3315,Marysin Wawerski,21.15273,52.23294
3319,Centrum,21.01111,52.23194
3341,Rogatka Warszawska,22.52638,51.25134
3356,Gronowo,16.60182,51.88953
3361,Niedźwiednik,18.56287,54.37725
3365,Bieżanów,20.02507,50.01945
3383,Opatkowice,19.90277,49.99142
3391,Brdyujście,18.13000,53.13389
3395,Wyszogrodzka,19.71750,52.53917
3410,Czyżkówko,17.96000,53.15000
3422,Piasta,23.18289,53.13476
3423,Grotowice,17.96914,50.59321
3430,Sidzina,19.87575,49.98728
3433,Sławięcice,18.32380,50.37269
3434,Zielone Wzgórza,23.10333,53.12194
3453,Zadębie,22.60789,51.25786
3459,Szerokie,22.50058,51.25212
3463,Milowice,19.07611,50.29421
3493,Szczakowa,19.27903,50.24123
3497,Górzyskowo,17.97636,53.11190
3509,Wiczlino,18.43700,54.48394
3515,Żbików,20.80544,52.18188
3525,Piaski,17.97125,53.17309
3527,Brzeziny,21.03981,52.33077
3528,Lasek,16.87738,52.34617
3536,Bydgoskie Przedmieście,18.57054,53.00947
3553,Leśna Dolina,23.09444,53.12917
3558,Centrum,19.07044,50.31727
3569,Jaroty,20.49809,53.74070
3570,Zielona,21.06876,52.18600
3576,Kobyle Pole,17.02340,52.39053
3595,Hałcnów,19.09465,49.85435
3596,Stoki,19.35453,51.44581
3610,Wilczak,16.95062,52.43001
3634,Wojnów,17.15891,51.09903
3637,Skolwin,14.61511,53.51599
3664,Kiełpino Górne,18.50754,54.34149
3665,Grabówka,19.21873,50.95661
3672,Bydgoszcz-Wschód,18.07062,53.12669
3677,Biskupice,18.81385,50.32618
3721,Przydworcowe,23.14111,53.13083
3731,Zatorze,18.25167,52.23444
3762,Lisiniec,19.06591,50.81244
3802,Szczawienko,16.30112,50.81678
3820,Podgórz,18.58482,52.98715
3839,Rybaki,18.58873,53.00817
3847,Brzęczkowice,19.13871,50.21980
3852,Centrum,18.91100,50.29190
3853,Maciejkowice,18.97532,50.32662
3856,Józefowiec,19.00594,50.28200
3882,Stroszek,18.85671,50.39272
3894,Osiny,18.68145,50.00934
3910,Kamienica,19.01707,49.79576
3923,Centrum,18.61011,49.94542
3932,Ruptawa,18.60047,49.92762
3933,Pobitno,22.03288,50.04434
3949,Zofiówka,18.62056,49.96667
3950,Moszczenica,18.55367,49.93619
3965,Centrum,18.60943,53.01245
3983,Rozbark,18.93365,50.34578
3984,Orzegów,18.86868,50.32625
3986,Szarlej,18.94731,50.37074
4018,Pniowiec,18.80358,50.49363
4031,Kępa Zawadowska,21.13977,52.14632
4040,Czułów,18.98861,50.14622
4075,Podgórze,16.29076,50.75082
4081,Suchostrzygi,18.75192,54.09511
4090,Sobięcin,16.24062,50.76022
4096,Bojary,23.17675,53.13554
4110,Stary Zdrój,16.28600,50.78162
4115,Szczęśliwice,20.94986,52.20733
4117,Mokre,18.86244,50.17935
4119,Bory,19.27864,50.17797
4131,Stara Kuźnia,18.86386,50.23282
4132,Płonia,14.71855,53.37270
4149,Skotniki,19.86544,50.01715
4152,Płaszów,19.98677,50.04461
4224,Pątnów,18.25242,52.30551
4239,Motylewo,16.75439,53.10061
4240,Podlasie,16.80689,53.15230
4257,Starosielce,23.11061,53.11176
4266,Zbójna Góra,21.22148,52.18904
4277,Rokosowo,16.23281,54.19118
4286,Wysoki Stoczek,23.10577,53.14432
4294,Piaski Wielkie,19.98906,50.00812
4295,Morgi,19.12719,50.20906
4296,Ławki,19.11342,50.16020
4305,Edwardowo,16.85264,52.41033
4333,Stare Miasto,18.00033,53.12193
4334,Centrum,20.43878,52.05519
4341,Szobiszowice,18.69839,50.30916
4360,Parkitka,19.10368,50.82584
4378,Centrum,18.24138,54.60345
4379,Łagiewniki,18.91339,50.32266
4388,Feliks,19.25659,50.28417
4411,H,18.97322,50.12714
4426,Przeróbka,18.67364,54.38524
4428,Dąb,18.99982,50.26942
4444,Nadmorska,15.57426,54.18617
4452,Nowe Rokicie,19.44619,51.73515
4459,Bema,23.13944,53.11889
4465,Poświętne,17.03104,51.15353
4466,Popowice,17.00157,51.12692
4472,Kostuchna,18.98193,50.18990
4474,Panewniki,18.95568,50.22770
4514,Wróblowice,19.94900,49.98424
4516,Zawodzie,19.06164,50.25688
4525,Jerzmanowo,16.87359,51.12106
4530,Winiary,19.65537,52.55974
4543,Południe,17.09011,51.07012
4557,Załęże,18.98653,50.26195
4595,Wapienica,18.97220,49.80863
4609,Urbanowice,19.03337,50.11065
4625,Ostoja,20.81515,52.15533
4646,Marcelin,21.00167,52.32496
4657,Stabłowice,16.88361,51.14806
4658,Nowy Bytom,18.86114,50.29070
4698,Lipnik,19.08869,49.82629
4715,Księże Wielkie,17.09387,51.06767
4716,Lipa Piotrowska,16.99637,51.17091
4792,Konradów,16.23437,50.79596
4805,Zawada,20.73151,49.57822
4819,Zgorzelisko,17.12836,51.13856
4826,Skiereszewo,17.54320,52.53038
4829,Chorzów II,18.94402,50.30607
4838,Maciejowa,15.83950,50.90679
4841,Grabiszynek,16.99132,51.08236
4889,Poniatów,16.31333,50.79611
4927,Śródmieście,19.06580,52.65334
4935,Kawiary,17.61427,52.52007
4945,Wygoda,23.19934,53.14554
4950,Długoszyn,19.24597,50.24400
4964,Kaliny,14.50726,53.43080
4992,Wiskitno,19.55629,51.71173
4995,Wieniawa,22.52761,51.24924
5004,Bocianek,20.64705,50.88550
5006,Bieruń Nowy,19.18000,50.08000
5017,Pyry,21.01509,52.12868
5031,Kijewo,14.69004,53.37707
5066,Lasowice,18.87564,50.45394
5091,Bolinko,14.56056,53.44444
5111,Centrum,19.40538,51.85972
5115,Łaziska Dolne,18.87937,50.17080
5173,Wesoła,19.10863,50.18783
5187,Przylesie,18.53857,54.44621
5213,Raduszka,16.20196,54.15266
5217,Osiedle Sikornik,18.65639,50.28250
5221,Dolna Wilda,16.91886,52.37625
5227,Hermanice,18.81206,49.71966
5240,Centrum,22.35042,53.82360
5244,Nowe Zawodzie,19.23960,50.28091
5283,Centrum,18.81206,49.71966
5289,Czerniewice,18.67718,52.97620
5291,Wilkowyja,22.04813,50.03251
5313,Augustówek,21.06667,52.35000
5333,Paprocany,18.99509,50.09454
5373,Zieliniec,17.04581,52.41194
5391,Wilczy Młyn,16.95715,52.43946
5397,Chynów,15.52719,51.96970
5403,Choszczówka,20.98309,52.35566
5405,Siekierki,21.07816,52.18500
5413,Anin,21.16667,52.23333
5419,Słoneczny Stok,23.10500,53.13000
5421,Mickiewicza,23.17278,53.12417
5436,Chwałęcice,18.47519,50.13506
5463,Dyrekcja,23.49498,51.13573
5477,Podgrodzie,20.47092,53.76555
5531,Złote Łany,19.06278,49.81163
5541,Koniuchy,18.60748,53.03316
5545,Dalki,17.58333,52.51667
5557,Tysiąclecie,19.11896,50.82757
5584,Prądy,17.89873,53.13360
5596,Trzech Wieszczów,19.11159,50.80031
5599,Błeszno,19.15000,50.76000
5603,Stradom,19.09252,50.78966
5633,Falenica,21.20875,52.16388
5634,Pieczyska,17.92497,53.31559
5643,Horodyszcze,23.44486,51.17380
5650,Kiedrzyn,19.10834,50.84713
5653,Bór,19.11848,50.78480
5693,Kleszczów,18.73000,50.04000
5761,Straconka,19.09544,49.79811
5771,Centrum,17.07804,52.41024
5817,Zalasewo,17.07325,52.38979
5843,Malichy,20.84083,52.16944
5874,Sępolno,17.10414,51.11071
5889,Zawadzkiego,14.49543,53.45475
5892,Rybitwy,20.02833,50.04269
5923,Zgoda,18.91435,50.27876
5979,Żabikowo,16.86411,52.34967
5987,Stołczyn,14.59911,53.49418
5996,Sikorka,19.29567,50.38608
6001,Górniki,18.79897,50.39214
6008,Osobowice,17.00000,51.15000
6023,Przyjaźni,14.53857,53.53990
6024,Podjasnogórska,19.09106,50.80574
6028,Bielawy,18.70000,53.03000
6029,Ćmok,19.12273,50.22882
6049,Konstantynów,23.08516,52.20716
6083,Sobieszewo,18.82566,54.34431
6099,Smolna,18.53261,50.08960
6108,Szczekanica,19.64667,51.42528
6138,Brochów,17.08000,51.06000
6141,Stare Miasto,21.01442,52.24672
6143,Bobrek,18.85841,50.33943
6144,Kokoszki,17.58010,52.50674
6145,Centrum,19.69718,51.40769
6146,Zalesie,22.03411,50.00642
6153,Krasowy,19.14255,50.18128
6154,Ujejsce,19.24472,50.39325
6157,Stare Miasto,18.60781,53.01107
6168,Osiedle Mazurskie,20.51410,53.76086
6203,Miłocin,21.98399,50.07719
6206,Oporów,16.96000,51.08000
6233,Sucha Góra,18.85794,50.40156
6287,Konikowo,17.61387,52.53207
6293,Osiedle Paderewskiego,19.03590,50.25094
6319,Prędocinek,21.16018,51.37470
6327,Opatowice,17.12135,51.08960
6372,Prokocim,19.98693,50.01829
6386,Kawodrza Dolna,19.06948,50.80176
6388,Sabinów,19.08583,50.76768
6393,Jęzor,19.16299,50.23417
6453,Centrum,15.04467,53.33806
6474,Latoszki,21.12728,52.13277
6489,Bielany,18.54590,53.02921
6528,Jary,17.95970,53.12503
6558,Morasko,16.91357,52.48892
6636,Miedzeszyn,21.18000,52.18000
6661,Bór,19.18626,50.24435
6669,Chwarzno-Wiczlino,18.42028,54.49968
6677,Kaduk,20.68889,49.60361
6698,Jezierzyce,14.77845,53.34239
6699,Zemborzyce,22.50075,51.16296
6710,Gaj,16.26575,50.75406
6714,Sienkiewicza,23.16505,53.13974
6740,Dąbrówka Wielka,18.98972,50.34210
6762,Gołębiów,21.19435,51.41746
6805,Przegorzały,19.86166,50.05035
6810,Likusy,20.43695,53.79334
6861,Osiedle Dolinki,15.24417,52.73894
6888,Śródmieście,20.47984,53.77788
6906,Podlesie,19.24162,50.32639
6909,Wały Chrobrego,14.56303,53.43003
6915,Brzozowice-Kamień,18.97278,50.36944
6953,Strachocin,17.14167,51.10847
6955,Opławiec,17.96028,53.18650
6973,Biedaszkowo,17.97543,53.10745
6980,Biała,22.00695,49.99928
6991,Buchnik,20.93133,52.36401
7041,Tatary,22.58878,51.24473
7103,Łęgnowo,18.11000,53.10000
7134,Kłodnica,18.16000,50.35000
7137,Koźle,18.14241,50.33606
7141,Lenartowice,18.23694,50.35778
7187,Botanik,22.52025,51.26498
7197,Wrzosowiak,19.13818,50.77750
7207,Pilchowo,14.48079,53.49765
7213,Malina,17.99672,50.62543
7217,Ludwikowo,17.98401,53.13922
7228,Centrum,19.68909,52.54788
7254,Mąkołowiec,18.96632,50.14457
7260,Chełmińskie Przedmieście,18.59448,53.02261
7273,Jakubskie Przedmieście,18.63124,53.02009
7276,Stare Miasto,20.69139,49.62528
7280,Konstantynów,19.13645,50.29222
7283,Przetakówka,20.69333,49.63528
7304,Leszczyny,19.06976,49.79902
7307,Wielki Bór,18.84809,50.81794
7311,Cygański Las,19.04278,49.77742
7340,Imielnica,19.77393,52.53594
7365,Górny Mokotów,21.00083,52.20417
7388,Aleksandrowice,19.00367,49.80768
7463,Racula,15.56453,51.91258
7467,Osiedle Witosa,18.96513,50.26290
7469,Brzozowice,18.96864,50.36501
7480,Zadole,18.97159,50.21755
7481,Rajsko,19.97763,49.99035
7484,Lubiatowo,16.28333,54.16667
7540,Węglin,22.11578,50.81441
7548,Służewiec,20.98955,52.18111
7569,Golęcin,16.86034,52.42975
7575,Strzemieszyce Małe,19.32146,50.32843
7599,Na Skarpie,18.68830,53.02550
7602,Kazimierz,19.22242,50.29449
7609,Jaroszowice,19.04163,50.11984
7639,Zacisze,19.11853,50.81739
7644,Cielmice,19.02112,50.08869
7653,Przy Lesie,18.68063,53.05341
7686,Maroko-Nowiny,18.52460,50.10441
7716,Zagórki,23.23768,53.09792
7770,Golęcino,14.58970,53.46446
7781,Maczki,19.26314,50.25977
7838,Klarysew,21.10556,52.10004
7887,Zazamcze,19.03701,52.66872
7902,Trześniów,22.59631,51.26508
7921,Kostrze,19.84696,50.03351
7923,Wygoda,18.66722,50.05944
7964,Wielgowo,14.76549,53.38350
7978,Staszyce,16.74192,53.12632
8011,Grabów,21.02480,52.17986
8020,Sowice,18.85531,50.45834
8034,Krzekowo,14.48828,53.44859
8060,Gutkowo,20.40065,53.79975
8063,Młodych,18.59278,53.01556
8073,Zachodnia,15.51631,54.16594
8074,Żydowce,14.57353,53.34975
8096,Kolonia Grabówka,19.06300,50.83175
8105,Przewóz,20.05657,50.04548
8144,Maciejów,18.74217,50.30865
8162,Mątwy,18.25467,52.75850
8192,Wawrzyszew,20.93333,52.28333
8216,Rogi,19.78945,50.98399
8239,Nowosolna,19.59015,51.79374
8246,Słodowiec,20.96259,52.27414
8248,Powsinek,21.09237,52.15670
8260,Koszelew,19.15841,50.32250
8288,Radiowo,20.89439,52.28594
8291,Zawady,21.10904,52.16624
8293,Kuligów,21.13798,52.18185
8372,Pogoria,19.24276,50.35843
8382,Górki Zachodnie,18.76515,54.35560
8449,Wójtowa Wieś,17.88912,50.64501
8461,Wośniki,21.09289,51.38126
8493,Henryków,21.37083,50.95556
8533,Żerniki,16.86060,51.14506
8541,Soboniowice,19.99271,49.98327
8583,Centrum,18.08981,51.76298
8665,Imielin,21.01000,52.15000
8673,Sławinek,22.52226,51.26144
8697,Nowe Miasto,14.54306,53.41824
8739,Strzybnica,18.79872,50.48344
8774,Zamysłów,18.51900,50.07807
8881,Kaszczorek,18.69525,53.00547
8924,Centrum,20.06171,49.98209
8929,Wiśniowa Góra,21.13311,52.32896
8930,Millenium,20.70833,49.61417
8983,Zawada,15.56280,51.99121
8993,Barskie,20.70778,49.62528
9059,Zesławice,20.04115,50.10487
9093,Żerniki,18.70598,50.32017
9103,Zieleniec,15.25825,52.70073
9110,Kościelisko,19.94067,49.29265
9119,Niemierzyn,14.53977,53.44740
9127,Świerczewo,14.51340,53.42746
9143,Wzgórza Krzesławickie,20.08341,50.09640
9151,Rżąka,20.00324,50.00531
9167,Kalety,19.09424,50.29543
9171,Popielów,18.51265,50.05361
9176,Stodoły,18.48156,50.15408
9201,Ksawerów,21.01903,52.18696
9214,Stare Bielsko,19.01111,49.83037
9215,Sady Żoliborskie,20.96827,52.26200
9225,Żwaków,18.95675,50.11110
9245,Pawłów,18.79961,50.27914
9274,Choiny,22.78827,51.07607
9290,Piaśniki,18.90890,50.30477
9299,Henryków,20.95206,52.35140
9302,Ludwinów,21.00431,52.13469
9320,Ciężkowice,19.34452,50.21734
9345,Zawiśle,19.06939,52.67318
9367,Gzichów,19.11497,50.32613
9368,Olszówka,19.04224,49.78737
9371,Chrzanów,20.88297,52.21676
9389,Ochojec,18.54458,50.16634
9429,Flisy,17.94289,53.13710
9455,Tatrzańskie,18.16032,53.16003
9459,Barbarka,18.55930,53.04803
9462,Glinki,18.34512,52.94771
9464,Katarzynka,18.65000,53.05000
9473,Rudak,18.66086,53.00384
9477,Bursaki,22.56991,51.26980
9646,Głusk,22.59687,51.19119
9653,Hajdów,22.61860,51.25314
9701,Majdan Tatarski,22.59083,51.23722
9703,Majdanek,23.45510,50.47410
9709,Piaski,23.51175,51.33744
9711,Rudnik,22.61079,51.28269
9712,Stare Miasto,22.57082,51.24822
9718,Wola Sławińska,22.49363,51.26884
9722,Wrotków,22.54593,51.20365
9725,Żabieniec,19.40109,51.81557
9767,Wilczak,17.97379,53.12458
9768,Fordon,18.16897,53.14183
9769,Glinki,18.01728,53.10055
9770,Bocianowo,18.00295,53.13498
9771,Zimne Wody,18.07624,53.11526
9772,Smukała,17.97350,53.19203
9789,Błędów,19.43470,50.34542
9836,Julianów,21.16736,52.16376
9881,Barniewice,18.44024,54.40437
9962,Dojlidy Górne,23.21092,53.09026
9978,Gosławice,18.49004,50.73279
9984,Zawady,16.96049,52.41704
10016,Borków,21.15062,52.19078
10024,Pustachowa,17.59845,52.50027
10063,Wygorzele,19.03892,50.13036
10079,Grzybowice,18.75709,50.35960
10150,Dolny Mokotów,21.03361,52.19944
10157,Załubińcze,20.70333,49.63111
10178,Chmielnik,18.10276,51.77791
10250,Aleksandrów,21.04472,52.39667
10336,Poręba Mała,20.71000,49.58000
10345,Konstancin,21.12361,52.07972
10372,Osiniec,17.64651,52.51433
10388,Bysewo,18.45878,54.36658
10464,Zabełcze,20.69158,49.64834
10529,Półwieś,17.88105,50.68057
10555,Niedobczyce,18.51602,50.06479
10558,Zasanie,22.74756,49.78971
10592,Herby,20.59972,50.88782
10594,Tucznawa,19.31493,50.38601
10606,Repty,18.83035,50.41882
10626,Kozłowa Góra,18.95084,50.41091
10939,Pracze Odrzańskie,16.91000,51.18000
10993,Górne,16.72245,53.05081
11087,Zbydniowice,19.94982,49.97385
11117,Bugaj,19.17335,50.76426
11122,Wierzbno,21.01673,52.19027
11134,Olesin,21.06609,52.35417
11143,Skorosze,20.90000,52.18333
11149,Muchowiec,19.02626,50.23182
11155,ZDRÓJ,18.61011,49.94542
11160,Kłokocin,18.63277,50.05315
11161,Kuźnia Ligocka,18.59778,50.08972
11163,Jastrzębie Dolne,18.57469,49.95479
11166,Szeroka,18.62585,49.98999
11171,Zebrzydowice,18.50000,50.10000
11177,Golejów,18.55000,50.11667
11182,Paruszowiec,18.56895,50.09922
11184,Borynia,18.64823,50.00737
11185,Raszowiec,18.58835,50.08094
11187,Kleszczówka,18.70722,50.05222
11189,Janów,19.08822,50.23837
11191,Orzepowice,18.51608,50.11419
11194,Burowiec,19.07410,50.27430
11228,Tonie,19.88898,50.11202
11284,Szczepanowice,17.88816,50.65372
11286,Drzonków,15.56942,51.89365
11289,Pasieka,17.91120,50.66944
11412,Zamoście,15.23684,52.72429
11415,Stary Rynek,16.93360,52.40889
11445,Krzyżowniki,17.13387,52.30827
11476,Bierkowice,17.84999,50.67924
11539,Laski,19.24856,50.33473
11563,Jurata,18.71468,54.68342
11619,Młociny,20.92917,52.29056
11653,Białołęka Dworska,20.98000,52.35000
11670,Młodzianów,21.14728,51.37650
11736,Maćkowy,18.61980,54.30636
11744,Radojewo,16.94365,52.49334
11757,Księży Młyn,19.36523,51.31364
11762,Laskówiec,18.30917,52.23361
11794,Mikuszowice Śląskie,19.05664,49.78182
11810,Ryczewo,17.02848,54.46415
11824,Falkowa,20.88661,49.74484
11861,Tworki,20.82333,52.16944
11878,Sikawa,19.52778,51.79131
11899,Dobrzec,18.02541,51.75123
11930,Raculka,15.55381,51.93244
11982,Winiary,18.14101,51.75701
11987,Rybna,18.79738,50.46627
12083,Mokre,18.62194,53.02897
12086,Piątkowa,20.75468,49.62715
12131,Komorowice Krakowskie,19.05304,49.86527
12197,Próchnik,19.45294,54.24263
12251,Zatrzebie,21.18168,52.16034
12253,Sośnica,18.70887,50.29207
12281,Kostrogaj,19.70560,52.56518
12288,Leszczynko,16.57667,51.83722
12297,Zakrzówek,19.91417,50.03742
12298,Podzamcze,14.55716,53.42367
12358,Gorce,16.20505,50.75606
12379,Olszówka Górna,19.02894,49.78261
12435,Zatorze,16.55917,51.84694
12466,Święty Wojciech,18.62958,54.28434
12475,Długie Ogrody,18.66503,54.34775
12481,Kręciwilk,19.11853,50.81739
12496,Sielanka,18.01384,53.12938
12557,Lubiechów,16.29442,50.83121
12561,Wartogłowiec,18.99993,50.12940
12683,Arkońskie-Niemierzyn,14.52755,53.45475
12721,Metro Wilanowska,21.01960,52.17424
12727,Centrum,18.75041,53.49183
12733,Osada Rybacka,18.55111,54.55917
12736,Boguszów,16.20430,50.75595
12771,Bazylianówka,22.57570,51.26483
12821,Szotkowice,18.52381,49.93693
12823,Radziejów,18.52456,50.05599
12829,Meksyk,18.54870,50.08011
12863,Chełmoniewo,16.23672,54.18424
12867,Dajtki,20.42342,53.76516
12921,Kluczewo,15.01000,53.28000
12927,Zaborowo,16.58435,51.81695
13001,Nad Wisłą,18.17384,53.15933
13064,Chełmiec,20.68222,49.67497
13068,Zbytki,20.93891,52.34272
13079,Ratanice,19.18796,50.37743
13104,Grabownia,18.53119,50.13705
13157,Track,20.53825,53.79624
13195,Garbary,16.94062,52.41033
13498,Minikowo,16.94133,52.35876
13553,Warszawskie,16.98634,52.41409
13619,Mydlniki,19.84584,50.08529
13700,Słupna,19.13305,50.22579
13719,Brzozowica,19.13629,50.33113
13738,Gładyszewo,16.68582,53.16806
13743,Jadwiżyn,16.76525,53.17126
13798,Gocławek,21.11933,52.23816
13942,Przylesie,18.12663,53.15123
14003,Świbno,18.93451,54.33467
14179,Kortowo,20.45451,53.75766
14196,Przegalina,18.92101,54.31312
14277,Chróścik,15.14719,52.73148
14278,Zawodzie,18.10510,51.74844
14282,Korczak,18.05473,51.75841
14283,Szczypiorno,18.02766,51.72629
14284,Lis,18.12041,51.71618
14336,Niedzieliska,19.24714,50.22827
14375,Góry,19.65728,52.50206
14381,Zawady,23.11031,53.16721
14405,Jamno,16.16803,54.24521
14406,Skorupy,23.19738,53.12532
14439,Stare Miasto,19.68518,52.54488
14448,Rypinek,18.09725,51.73962
14449,Piwonice,18.09953,51.72091
14450,Majków,18.07936,51.77879
14452,Piskorzewie,18.07877,51.76574
14454,Ogrody,18.05973,51.76723
14503,Stare Miasto,16.09506,51.66444
14526,Centrum,16.20915,51.39435
14527,Modrzejów,19.14835,50.23963
14639,Julianów,20.00721,51.43068
14653,Stare Miasto,15.04447,53.33727
14659,Widawa,17.07938,51.15540
14704,Główna,16.96960,52.42069
14747,Ostrów Tumski,16.94810,52.41124
14751,Kurczaki,19.49716,51.71949
14827,Rynek Jeżycki,16.90502,52.41180
14868,Tyniec,18.11603,51.76338
14879,Pleszów,20.10405,50.06614
14926,Koszyce,16.73000,53.18000
14927,Śródmieście,16.73166,53.15228
14928,Zamość,16.78873,53.13099
14938,Kleczków,17.02781,51.12889
14994,Wyczerpy - Aniołów,19.15213,50.83669
14998,Cieśle,19.29197,50.27894
15175,Kolonia,21.98506,49.96932
15201,Wyględówek,20.81909,52.16193
15333,Krzyszkowice,20.02902,49.99036
15336,Bronowice Małe,19.87203,50.08824
15356,Romanów,19.58581,51.65045
15401,Obozisko,21.14927,51.41321
15439,V osiedle,18.25107,52.22303
15481,Sitaniec-Błonie,23.26019,50.74031
15542,Kuźniki,16.95324,51.12705
15617,Karb,18.87093,50.35843
15619,Bobrowniki,18.87428,50.42736
15637,Klęskowo,14.66012,53.37021
15648,Sławociesze,14.75022,53.38044
15649,Gocław,14.60394,53.47607
15695,Jeleń,19.24534,50.16312
15753,Kosocice,20.00092,49.99078
15865,Niestachów,16.88848,52.42446
15878,Glinki,14.59100,53.48112
15901,Zacisze,20.47526,53.72497
15911,Gołąbki,20.86548,52.20159
16021,Łosień,19.32892,50.35299
16108,Przylep,15.45101,51.96882
16157,Słoneczne Tarasy,18.62232,53.01714
16428,Bzie Dolne,18.65000,49.93000
16534,Chruślice,20.72333,49.63111
16551,Zofin,18.16027,53.17141
16590,Olszówka Dolna,19.04682,49.79384
16765,Groty,20.99415,52.28670
16822,Zielona,19.17618,50.34072
16885,Pustki Cisowskie-Demptowo,18.45291,54.53447
16972,Młodych,23.12361,53.13528
16978,Suble,18.96810,50.12262
17041,Grodzkie,20.70222,49.61417
17259,Dźbów,19.06069,50.76079
17299,Folwarki,18.65791,50.05257
17412,Niewachlów Pierwszy,20.57671,50.89416
17413,Czarnów-Osiedle,20.61069,50.88084
17415,Nowy Folwark,20.66346,50.87834
17416,Niewachlów Drugi,20.56005,50.90606
17417,Białogon,20.55698,50.85505
17418,Ostra Górka,20.65809,50.84365
17512,Zalesie,20.52563,50.85019
17548,Demptowo,18.46000,54.51000
17562,Grzybowo,16.61090,51.85339
17617,Zerzeń,21.14133,52.19283
17628,Pławnik,17.60962,52.50989
17771,Podwale,16.57584,51.84993
17936,Krzesinki,17.00533,52.34234
17996,Komorowice Śląskie,19.01819,49.86790
18024,Siedlice,15.28951,52.70278
18090,Huta,21.17632,51.44338
18157,Bąki,20.82186,52.19045
18201,Podolszyce,19.74639,52.53278
18338,Czerniaków,21.06708,52.19488
18590,Pruszaków,21.07145,51.36650
18606,Kopanina,16.86381,52.37734
18631,Pilczyce,16.95087,51.14001
18638,os. Szymanowskiego,22.58138,51.26231
18856,Żegrze,16.96521,52.38044
18887,Opatowice,18.81714,50.45882
18930,Kłokoczyce,17.09621,51.15756
19032,Andrzejów,18.24845,51.18370
19033,Mariensztat,21.01613,52.24613
19080,Rybnicka Kuźnia,18.52501,50.12938
19168,Stolarzowice,18.82222,50.38804
19174,Glinice,21.16923,51.38748
19323,Żerań Wschodni,21.01245,52.31333
19374,Stare Miasto,19.37161,51.66476
19376,Majdan Wrotkowski,22.53533,51.21045
19542,Dzierzków,21.18654,51.39708
19584,Gosławice,18.26555,52.28664
19679,Strachowice,16.90000,51.11667
19966,Jedliny,16.21117,54.20083
20027,Dąbrówka Infułacka,20.92083,50.00194
20054,Antoniuk Fabryczny,23.11986,53.14778
20060,Mirów,19.16489,50.81561
20105,Szoszowy,18.73194,50.00361
20154,Makoszowy,18.77531,50.26785
20209,Jaroszówka,23.19522,53.16493
20224,Borki,21.12618,51.38971
20256,Łasztownia,14.57778,53.42222
20257,Śmierdnica,14.75599,53.34265
20279,Kończyce,18.78287,50.27119
20383,Wólka Klwatecka,21.13492,51.44655
20523,Sypniewo,16.98849,52.30448
20552,Janiszpol,21.20077,51.36386
20591,Rządz,18.70674,53.44059
20647,Helenka,18.80512,50.37341
20756,Zamłynie,21.12167,51.40188
20786,Zatorze,22.36891,53.83135
20815,Osiniec,16.89806,51.12111
20882,Bronowice Wielkie,19.87589,50.09902
20883,Tuszewo,18.80000,53.48333
21036,Morzysław,18.29317,52.23139
21075,Jugowice,19.92494,50.00052
21086,Cegielniana,19.92986,50.02548
21148,Łęg,20.02446,50.05997
21161,Przylasek Wyciąski,20.16916,50.05544
21181,Wyciąże,20.16014,50.07322
21186,Kobierzyn,19.89170,50.01150
21220,Okradzionów,19.38291,50.33433
21336,Wyczerpy,19.17007,50.86021
21365,Smukała Dolna,17.96000,53.20000
21371,Janów Miejski,19.10245,50.23581
21407,Piotrowo,16.95045,52.40309
21481,C,19.02000,50.12180
21489,Cedro-Mazur,20.70708,50.86019
21509,Łęka,19.34867,50.36078
21511,Bielice,18.00530,53.10462
21539,Trzydziesty,19.20828,50.34102
21678,Rząsawy,19.16857,50.87260
21781,Bobrek,19.17458,50.25511
21785,Liszka Dolna,19.11853,50.81739
21803,Karczówka,20.58399,50.86938
21843,Czarne,15.74810,50.87446
21869,Słoboda,23.13610,53.10521
21872,Dojlidy,23.20320,53.11398
21873,Fasty,23.08004,53.16127
21892,Załęska Hałda,18.98265,50.25032
21956,Turzyn,14.53038,53.42642
22087,Gotartowice,18.61611,50.07530
22498,Cezarówka Dolna,19.34001,50.15861
22501,Pocieszka,20.63437,50.88012
22529,Nowe Bródno,21.02502,52.28552
22533,Budziwój,21.98553,49.96988
22651,Wilcze Gardło,18.57101,50.26630
22731,Dąbrowa,19.47155,54.19257
22883,Jamnica,20.75528,49.58222
22957,Owczarnia,18.49132,54.41142
22965,Piekło,19.20425,50.36200
23059,Dębowa Góra,19.14357,50.26872
23095,os.Tysiąclecia,23.14860,53.16644
23110,Krychnowice,21.08292,51.35610
23170,III osiedle,18.30671,52.23384
23284,Kazanów,22.75557,49.79873
23522,Marlewo,16.93324,52.34129
23523,Dąb,19.26551,50.14039
23575,Stare Miasto,18.26743,52.80351
23578,Bystrzyk,14.59111,53.46639
23608,Roździeń,19.07247,50.26179
23647,B,19.02000,50.12180
23659,Zwierzyniec,19.00462,50.14054
23701,Rury Jezuickie,22.56833,51.24714
23900,Wola Grzybowska,20.99066,52.23464
24153,Gądów Mały,16.96298,51.12454
24242,Chebzie,18.88096,50.29854
24277,Prawiedniki,22.52001,51.14396
24414,Rokicie,19.43272,51.72731
24470,Zagórzynek,18.07644,51.73754
24503,Koszary,21.41667,50.96667
24535,Pastwiska,18.79417,53.44194
24652,Pochwacie,18.60477,49.96945
24703,Branice,20.13457,50.06723
24704,Krzesławice,20.05319,50.08530
24849,Śródmieście,14.55716,53.42367
24901,Młynek Janiszewski,21.14437,51.43410
24911,os. Konopnickiej,22.55542,51.24385
25083,Łuczanowice,20.10931,50.10687
25091,Śródmieście,18.99112,50.11704
25167,Biegonice,20.67320,49.58302
25186,Dąbrówka Polska,20.68503,49.59303
25280,Owczarki,18.84782,53.50323
26138,Bażantarnia,23.10851,53.11690
26160,Nowe Repty,18.72220,50.47305
26203,Sytkowo,16.83250,52.42917
26217,Nery,19.58639,51.75222
26219,Węzłowiec,18.99360,50.29699
26221,Nowy Służewiec,20.98922,52.16113
26263,Raków,19.71667,51.45000
26314,Kolonia Rybacka,18.54352,54.57402
26363,Piwonice-Zachód,18.06914,51.75654
26385,Podchoinie,22.02501,50.59966
26387,Kradziejówka,18.68170,50.06096
26442,Wysoki Brzeg,19.17611,50.20983
26463,Wenecja,17.82373,51.66607
26474,Cukrownia,21.37051,50.92475
26480,Chocianowice,19.41000,51.71000
26622,Plac Grunwaldzki,17.06127,51.11167
26665,Budy Małe,22.75902,49.80362
26695,Darzybór,17.03040,52.38398
26703,Kruk,18.22783,52.79825
26783,Kolonia,18.44190,54.46851
26823,Mikorzyn,18.25225,52.76014
26879,Płotki,16.82342,53.18009
26943,Piekary,17.55030,52.54021
27001,Mileszki,19.59463,51.77159
27014,Skrzypki,21.16365,52.15742
27027,Piekary Wielkie,16.21056,51.20908
27039,Krzywólka,22.89232,54.12092
27040,Deszno,21.84176,49.54214
27056,Weronów,21.19524,51.39802
27107,Dymacz,19.64974,51.43334
27124,Zosinek,22.22149,51.08149
27155,Niedźwiedziniec,18.93952,50.26065
27272,Brzezie-Stacja,18.96602,52.69591
27286,Nosków,18.03459,51.72713
27289,Gródek,19.33085,50.22105
27396,Lipówka,19.35392,50.32743
27411,Krzemionka,19.11286,49.84612
27413,Pszczelnik,14.99521,53.34161
27423,Nowy Dwór,18.90980,50.36896
27449,Nowe Budy,22.09062,50.01712
27485,Górki,22.04979,50.58419
27497,Segiet,18.86378,50.40237
27509,Rędzin,16.96667,51.16667
27558,Brus,19.37280,51.74925
27623,Boleszyce,14.61778,53.37389
27642,Piaski,18.57815,50.10678
27691,Grodzisko,18.64106,54.35690
27692,Bloki Sabinowskie,19.09425,50.76474
27752,Fortuna,19.23000,50.23000
27797,Na Łąkach,20.72150,49.57764
27915,Poczekajka,23.54777,51.21747
27921,Glinki,19.08252,52.64439
27959,Bory,19.16812,50.34724
27990,Sołtysowice,17.08295,51.14237
28035,Sieje,20.64550,50.90451
28050,Leszków,16.79615,53.12835
28075,Niesłusz,18.27365,52.23680
28101,Rypułtowice,19.36667,51.68333
28114,Żabnik,21.95975,50.00605
28128,Ciemny Kąt,22.02043,50.54564
28153,Ruda,19.01669,52.64988
28225,Nowe Złotno,19.38528,51.78028
28241,Sadul,21.15160,52.20906
28282,Zgorzelec,18.90022,50.32511
28291,Obrzyca,16.94722,52.39072
28347,Tczew-Wybudowanie,18.79149,54.07106
28463,Malików,20.57936,50.88935
28503,Wróblowice,19.12411,49.82414
28600,Potoki,22.01042,49.96447
28623,Motylewski Most,16.77979,53.10222
28674,Piwonice-Kolonia,18.08534,51.72035
28786,Przylasek,21.97904,49.93839
28803,Wolica,20.19117,50.05861
28835,Repeckie,18.82911,50.46607
28893,Walowskie,19.08109,49.78084
28900,Wysoka,18.48077,54.42648
28978,Cieplice Śląskie-Zdrój,15.68427,50.86912
28994,Cichy Kącik,19.90452,50.06491
29016,Huta Szklana,18.65073,51.42106
29052,Ostroróg,16.88133,52.40184
29061,Zygmuntówka,21.40979,50.92102
29069,Hiszpanka,21.99846,49.96597
29073,Franciszkowo,18.71245,53.47257
29083,Sienna Grobla,18.66660,54.35530
29225,Golikówka,20.01752,50.04490
29278,Jutrzkowice,19.36124,51.64951
29338,Maniówka,22.97714,54.12175
29410,Kartuszowiec,18.85905,50.44014
29433,Winna Góra,22.77774,49.79904
29510,Nowy Świat,19.92718,50.05767
29548,Lubowiec,19.19836,50.22255
29554,Dąbrowa,19.33944,50.15833
29575,Cegielnia,20.59806,50.86000
29589,Sobaniec,20.66947,49.60723
29601,Kamień,18.98235,50.36486
29722,Łany,22.04436,49.97886
29758,Działki,19.23043,50.33529
29765,Szmulowizna,21.05201,52.25626
29809,Łagiewniki,19.48481,51.83608
29838,Zawiść,19.01170,50.12096
29889,Cegielniana,19.37834,50.29292
29917,Czyste,21.01334,52.11985
29942,Malowany Dworek,18.99553,49.83627
29951,Borowiec,18.66319,51.27265
29994,Bodzów,19.87069,50.03723
30021,Piaski Zamiejskie,22.23359,52.18113
30059,Wyścigi,22.57029,51.22586
30135,Klucz,14.56037,53.34460
30149,Okół,17.90638,50.86703
30329,Przekopana,22.81340,49.78487
30355,Klimkowizna,19.30323,51.65578
30389,Pohulanka,20.84175,52.26221
30512,Janowice Duże,23.24139,50.73083
30545,Samborowo,18.55570,54.38668
30646,Zagórze,20.66213,50.85896
30730,Jelenia Dolina,19.48973,54.23866
30840,Wichłacz,16.25251,54.18568
30875,Wadów,20.12181,50.09682
30897,Żabiniec,18.18806,50.35222
30930,Polski Hak,18.67040,54.35689
30932,Stare Rokicie,19.43321,51.72577
31030,Rudno,18.67378,54.35061
31043,Plątnowo,18.13028,53.08889
31045,Czarna Rola,16.94191,52.43532
31054,Strzemięcin,18.73121,53.46040
31095,Piekło,20.71158,49.62657
31111,Kawka,18.96097,52.72681
31194,Potkanów,21.10377,51.35621
31269,Kolonia Joanny,18.95219,50.27018
31288,Nastole,20.59701,50.81640
31300,Domki,20.57188,49.69653
31434,Leopoldowo,18.94538,52.69995
31472,Zygmuntów,22.89007,50.97709
31477,Wiktoryn,20.92572,52.19806
31502,Piorunówka,22.52862,51.25446
31564,Podrowce,19.25062,50.40280
31581,Kuńkowce,22.71762,49.80562
31611,Krzetle,20.61996,50.89341
31647,Nowa Kuźnica,19.11387,51.02603
31659,Nowa Wola Gołębiowska,21.20902,51.44702
31694,Planty,23.25222,50.72028
31706,Zaszosie,20.62139,50.82028
31733,Kraska,22.04479,53.15332
31787,Koniówka,21.14183,51.42275
31815,Ogiernia,19.26482,50.13934
31904,Barnucin,14.63694,53.37472
31946,Arturówek,19.47276,51.82417
32010,Paluch,20.95985,52.15623
32073,Idalin,21.17954,51.37379
32223,Pustki,21.96047,50.05466
32264,Ruda Pabianicka,19.43750,51.70167
32301,Jastrzębie Górne,18.58521,49.88268
32302,Augustówka,21.10000,52.18000
32336,Zagajnik,19.11853,50.81739
32341,Podlasie-Przedmieście,16.78000,53.15806
32366,Sąsieczno,19.62361,51.74861
32525,Leśniówka,20.60000,50.81000
32526,Kraśnica,14.61286,53.48412
32531,Babia Ława,19.24362,50.34720
32547,Prątnica,18.77639,54.09417
32557,Miechowiczki,18.26942,52.77713
32646,Zagórze Górne,20.64796,50.88824
32659,Krężel,18.10903,50.35496
32707,Stara Wieś,18.62530,54.33380
32716,Dolna Wieś,19.04667,49.85972
32719,Longinus,19.68619,52.49188
32763,Niebrów,19.97070,51.54015
32799,Wilkoszyn,19.30336,50.20482
32864,Jeżowa Wola,21.10000,51.36000
32868,Nowa Kuźniczka,19.40358,50.32195
32918,Królewska Dolina,18.61268,54.36732
32962,Stare Repty,18.81000,50.41000
33069,Szajbówka,22.78219,49.80011
33077,Nowe Jeziorki,21.00592,52.11967
33079,Małomice,16.22326,51.41339
33111,Osetno,15.06921,53.32848
33114,Jerzysław,22.49356,51.21820
33135,Karnaty,22.05766,50.60288
33144,Gorzycka Droga,17.77963,51.64070
33145,Zawodzie,19.38400,54.16409
33160,Międzylesie,18.23676,52.24395
33177,Blachówka,18.85745,50.39996
33227,Nowe Ciechomice,19.68471,52.49198
33260,Granice,20.69792,49.57370
33309,Łomżyca-Przedmieście,22.03972,53.17528
33485,Suszyce,19.09033,52.66775
33506,Cegielnia,21.39455,50.93303
33555,Nowe Brzeziny,19.07538,50.76685
33631,Łęgi,16.67694,53.13361
33642,Hektary,19.11853,50.81739
33670,Stara Wieś,22.26667,52.15000
33710,Rumunki Zarudzkie,19.02168,52.65110
33725,Szarlociniec,18.93906,50.29828
33726,Niewiadom Dolny,18.48128,50.07603
33774,Mariampol,18.15000,53.18000
33791,Wygon,23.46378,51.14869
33805,Czułów-Papiernia,19.02000,50.12180
33822,Zębców,17.79921,51.63350
33824,Górka,20.62486,50.81726
33866,Starzyce,20.01617,51.55296
33890,Stary Rembertów,21.17363,52.25906
33902,Wietrznia,20.64253,50.85892
33912,Trzebusz,14.71383,53.40437
33938,Dziewiny,19.04884,52.64476
34015,Groszówka,21.23000,52.23000
34040,Nowiny,23.13752,50.44906
34056,Zagórze-Zastawie,20.68504,50.85496
34060,Lempertówka,22.79641,49.78033
34141,Wawel,19.93528,50.05417
34164,Byki,19.71695,51.43144
34188,Białawin,19.11853,50.81739
34199,Stara Łagisza,19.12541,50.32560
34254,Dubielec,18.61611,49.97000
34255,Łukaszew,19.51667,51.81667
34282,Rozwadów,22.04263,50.60068
34338,Ruda,18.90810,50.29075
34424,Cyganka,19.40320,51.77023
34447,Tatarska,22.76856,49.77730
34525,Górki Wschodnie,18.79415,54.35096
34592,Kolonia Janasa,18.91219,50.27954
34636,Nałęczów,20.52910,50.86883
34647,Dziećkowice,19.20901,50.17403
34707,Rybarze,18.13846,50.35920
34773,Zamczysko,23.24667,50.70083
34825,Stadion,20.62472,50.86139
34838,Przyszówka,18.64630,50.33498
34857,Buglowiec,18.50450,50.16003
34863,Zadębie Trzecie,22.62056,51.24472
35061,Markowizna,20.54121,50.81750
35063,Dziadki,19.85563,49.76945
35070,Płonia Wielka,18.76667,54.34996
35085,Karolinów,19.67680,51.43827
35088,Nowe Górce,20.89573,52.23953
35140,Kolonia Pechnik,19.26169,50.21029
35212,Czerwony Dwór,18.74778,53.46611
35263,Czechówka Górna-Kolonia,23.66167,50.60028
35278,Wieniawka,22.53441,51.25136
35349,Dąbie,17.07408,51.10271
35419,Lipinka,19.25689,50.16677
35445,Nowa Wieś Dolna,16.95714,52.48027
35457,Garbarze,22.78126,49.78909
35498,Półanek,21.98536,49.97308
35577,Zawadka,20.60605,49.70023
35610,Rózinowo,18.98638,52.70559
35614,Domaszewice Wikaryjskie,20.67936,50.87639
35662,Czechów Górny,23.18643,51.08513
35665,Karolew,19.32564,51.64503
35705,Laski,19.97190,51.49533
35743,Janówek,19.68147,51.73661
35783,Pobrzeże,22.78857,49.79612
35793,Odłogi,19.02452,52.60240
35871,Zimne Doły,22.49389,51.25389
35885,Grochol,18.07686,53.16111
35995,Opacz Wielka,20.92578,52.18221
36003,Wielkie Tarpno,18.82222,53.49619
36011,Bazylany,23.47894,51.11357
36065,Rębowo,18.54470,54.32010
36113,Szymborze,18.27250,52.76500
36260,Pogoście,19.34361,50.21750
36311,Bory-Pastwiska,19.30000,50.18000
36363,Trubaków,23.45306,51.13682
36393,Stara Kolonia,19.07509,50.28893
36430,Miejsce Kłodnickie,18.26440,50.37671
36488,Stawiska,18.51806,50.07667
36601,Stare Świdry,20.96370,52.31091
36628,Sosnówko,14.76174,53.33157
36642,Chwalęcice Dolne,15.21623,52.75682
36676,Kleryka,17.57444,52.53694
36696,Las Wolski,19.85112,50.05552
36758,Grabieniec,19.39156,51.79704
36763,Stare Szkoty,18.63198,54.33552
36817,Moskule,19.52938,51.84023
36879,Syberyjka,19.09247,52.64930
36905,Zapiecek,19.06814,52.65752
36923,Kuźniczka,18.20778,50.35528
36948,Żelazne Wody,19.08683,52.64331
37098,Rofszczyzna,21.37461,50.93936
37135,Nowy Dwór,18.21582,52.24697
37186,Antoniny,16.58390,51.84970
37245,Zaroślak,18.64196,54.34207
37277,Krzywa,18.99128,49.80992
37288,Węglinek,22.47880,51.21662
37392,Na Kopcu,19.06716,49.82386
37404,Przedmieście Szczecińskie,15.02417,53.34018
37490,Za Koleją,22.03465,50.05370
37541,Dębowiec,18.98747,49.78596
37570,Zamczysko,18.65833,54.35462
37594,Gągorówka,20.69253,49.62236
37632,Kruhel Mały,22.73977,49.77163
37650,Przymiarki,22.24482,52.17242
37657,Bukówka,20.64984,50.83612
37684,Karolin,20.87806,52.21333
37696,Czarnówko,18.11281,53.15788
37721,Kolonia Piaski,21.36770,50.95270
37726,Dąbie,18.74583,50.03500
37748,Janówek,20.24096,52.22811
37759,Dębie,19.11853,50.81739
37867,Kmiecie,22.74556,49.78271
37901,Bocoń,20.69728,49.63691
37908,Wały Szwedzkie,19.01986,49.82541
37964,Stary Chorzów,18.97522,50.30628
38052,Stare Złotno,19.36547,51.76617
38158,Wola-Wiaderno,19.95406,51.49740
38166,Jamy,22.77339,49.79912
38173,Dziekanka,17.57760,52.53405
38252,Grądek,20.55914,53.92578
38270,Stary Dwór,20.45535,53.74482
38315,Dąbrówka-Młynek,22.98167,54.10472
38319,Lisak,18.13135,50.36226
38342,Dąbrówka Szlachecka,20.96324,52.12957
38379,Placówka,20.90198,52.29390
38391,Nowa Wieś Górna,16.94478,52.48775
38399,Dębina,20.71333,49.61250
38441,Partanina,22.49356,51.21820
38458,Bakończyce,22.78355,49.77297
38565,Pociejewo,22.09115,53.17369
38571,Bory-Sobieski,19.27513,50.18273
38624,Buraków,20.96608,52.26334
38635,Dół,21.93836,50.01032
38649,Ogród-Kolonia,20.61504,50.84298
38724,Duże Nagórzyce,19.98000,51.50000
38730,Kośno,16.67472,53.14444
38764,Kustodia,17.59083,52.54083
38784,Miasteczko,16.94893,52.39661
38785,Rury Brygidkowskie,22.51122,51.24891
38811,Aleksandrówka,20.72370,49.56485
38835,Wymysłów,18.93746,50.22490
38839,Nowe Górki,19.49979,51.70255
38874,Zawady-Przedmieście,22.06690,53.15184
38927,Pabianka,19.40474,51.81491
38946,Jeziorki Polskie,20.98333,52.13333
38967,Józefów,20.00425,51.50528
39006,Dyminy-Wieś,20.63301,50.82416
39185,Kończyce,21.05226,51.36664
39204,Szewce,18.91917,54.28833
39260,Wesółka,19.64655,52.52129
39314,Parowa,19.66669,52.55068
39334,Skoki,14.58966,53.52345
39337,Węgrzynowice,20.15511,50.11412
39348,Nowy Imielnik,19.55000,51.83000
39365,Lipiny,18.89977,50.31148
39377,Latawiec,21.02079,52.22016
39403,Rąbinek,18.24096,52.77007
39407,Pachołek,18.55469,54.41126
39473,Malowane,23.44386,51.15202
39486,Dąbrówka,21.01000,52.11000
39488,Dobiegniewo,19.31667,52.63333
39496,Godów,21.16000,51.36000
39517,Róża,17.62444,52.55417
39542,Książ,16.29977,50.84176
39641,Koszary,21.00667,50.83583
39672,Dębina,21.98568,49.99240
39706,Korbacz,16.73643,53.13982
39908,Papiernia,22.92685,54.06916
40145,Komary,18.67374,54.26788
40147,Podgórze,19.99944,51.48500
40193,Huta Rozalia,19.11934,50.22689
40256,Wacyn,21.10323,51.41482
40344,Czekalskie,16.99395,52.40546
40352,Czarny Las,18.86221,50.27832
40357,Górka Piaszczysta,18.98888,52.66544
40465,Hańcówka,18.67529,50.03777
40472,Doły Starobielskie,19.00797,49.82110
40519,Smukała Górna,17.94814,53.18646
40547,Łapigrosz,20.98138,52.35013
40552,Wilhelmina,19.09420,50.25506
40591,Lubocza,20.09394,50.09715
40594,Podgórze,23.35314,51.15346
40627,Piotrówka,21.13519,51.39885
40646,Rybnica,19.14269,52.63177
40743,Marszowice,16.88361,51.16528
40788,Nagórze Północne,21.23166,49.90952
40809,Przy Strzelnicy,19.04914,49.81905
40811,Grzywno,19.07985,52.63749
40818,Kolonia Sławin,22.51045,51.26569
40832,Leszków,19.45952,54.23711
40873,Stare Miasto,18.10298,51.75214
40940,Krzyżowe Drogi,22.03783,50.56985
40958,Pozorty,20.47620,53.75566
41086,Święty Roch,22.06776,50.00906
41164,Tworzeń,19.26172,50.33957
41260,Kąty Denkowskie,21.46102,50.94803
41296,Szajerówka,22.04973,50.01359
41350,Bierdzany,17.07962,51.09048
41354,Zbarz,20.97386,52.17983
41391,Charzewice,22.02115,50.60365
41500,Wiączyń Górny,19.59275,51.75348
41523,Piecki,18.58505,54.36003
41535,Na Okrążkach,21.99975,50.04025
41548,Łasica,19.11870,52.65571
41621,Kaptur,21.13620,51.41202
41674,Rynkowo,18.00446,53.17241
41727,Kąt,22.79289,49.79874
41743,Listków,22.49356,51.21820
41817,Łubianka,20.66947,49.60723
41849,Rajsków,18.11639,51.74785
41969,Kolonia Zygmunt,18.90816,50.32305
41994,Janowo,18.25437,53.18654
42044,Czechówka Dolna,22.56433,51.25726
42064,Olszynka Grochowska,21.11296,52.25337
42080,Pastwiska,20.68484,49.62853
42128,Berlinek,19.43013,51.80008
42141,Borowiczki-Cukrownia,19.76961,52.51558
42153,Skotnica,19.28300,50.20183
42157,Kulin,19.12447,52.67645
42260,Kawodrza Górna,19.07278,50.79395
42282,Nagórzyce,19.98778,51.48710
42318,Radolin,14.61010,53.45758
42320,Choinki,22.55000,51.28000
42366,Kadzielnia,20.61763,50.86178
42373,Rynek Łazarski,16.90101,52.39466
42395,Czechów-Kolonia,22.55553,51.27893
42499,Gruchawka,20.61392,50.91204
42533,Mokra,16.83667,51.17222
42624,Łęczyca,21.08767,52.10417
42688,Granicznik,22.57139,51.28444
42727,Zielenisz,18.44649,54.49324
42777,Kogutówka,21.91824,50.00552
42811,Szczotki,19.21229,50.23391
42835,Osiedle Podleśne-Mniszek,18.71245,53.47257
42851,Gęsi Borek,22.29016,52.16760
42870,Wygnanka,16.76773,53.16472
42882,Biedaszkowo,16.69662,53.13680
42892,Szamocin,21.02144,52.35167
42904,Zadębie Stare,22.62222,51.25444
42926,Bojków,18.68053,50.25138
42943,Słodowo,19.04954,52.65885
42968,Czechowice,19.11853,50.81739
42988,Pelcowizna,21.01231,52.28284
42998,Białorogi,22.96667,54.16667
43047,Dąbrowa-Las,22.53443,51.16065
43064,Woźniki-Kolonia,18.73030,51.59560
43126,Stara Krowodrza,19.94844,50.05169
43163,Zniesienie,22.76600,49.77391
43243,Szabelnia,19.12682,50.25899
43244,Mariackie,21.14168,51.39533
43248,Kochanówka,19.36019,51.81370
43317,Wólka Zerzeńska,21.14764,52.18355
43322,Romanów,21.39694,50.87778
43329,Chyszów,20.95000,50.01667
43337,Troclik Lewy,19.02500,49.80093
43438,Pieczyska,19.31954,50.23784
43442,Golędzinów,21.02013,52.26650
43479,Giżynek,15.01076,53.32318
43489,Podzamcze,22.80364,51.19880
43537,Zemborzyce Górne,22.49028,51.15639
43574,Krzemieniówka,19.06635,49.79531
43613,Przybków,16.15215,51.17211
43630,Gorzkiewki,20.98500,52.16667
43634,Ugory,21.03985,52.29927
43648,Zalesie Pierwsze,20.52830,50.84768
43732,Jasna Góra,19.09722,50.81250
43775,Rudnik,14.71574,53.39993
43805,Piekart,18.01776,51.75435
43838,Ruszcza,20.15013,50.08933
43846,Białobrzegi,20.06622,51.52061
43852,Starołęka Wielka,16.92815,52.35521
43872,Nowe Świdry,20.94728,52.31974
43933,Nowy Staw,17.81444,51.66944
43965,Dolne Gołąbkowice,20.72953,49.62026
43999,Podgrodzie,22.49356,51.21820
44003,Józefów,21.16154,51.43946
44147,Karolówka,21.16035,52.26725
44233,Krzewień,21.18131,51.45798
44238,Augustów,21.06667,52.33333
44295,Maszewo Małe,19.64484,52.53549
44297,Powsino,19.70294,52.57677
44341,Ludwików,20.04112,51.51498
44408,Zawada,19.32583,50.17694
44490,Stare Górki,19.17188,51.15539
44530,Bieńkowice,17.09128,51.04987
44535,Jagodnica,19.37933,51.77257
44585,Korzeniec,19.34389,50.15361
44610,Nacyna,18.47755,50.07047
44624,Dziadowo,19.04920,52.65309
44720,Świątniki,16.79997,50.87032
44740,Źródelnia,15.03623,53.35301
44857,Ligota Zabrska,18.70640,50.27943
44878,Łuba Pierwsza,19.03587,52.63642
44882,Nadkoszary,21.44326,50.96233
44883,Karolówka,23.22722,50.71944
44886,Glinka,18.96270,50.12382
44925,Mokry Ług,21.17179,52.28232
44932,Malinowe Górki,19.19457,50.34275
44934,Dobrzec Wielki,18.02496,51.74415
44946,Pustki,19.01149,49.84592
44998,Przesmyk,19.07857,52.66863
45015,Młodzieniaszek,19.39047,51.65950
45084,Dolne Miasto,18.66055,54.34320
45087,Pieczurki,23.21319,53.13600
45109,Berdychowo,16.95123,52.40382
45116,Zakaplica,20.57591,50.89796
45124,Nowy Miedzeszyn,21.19188,52.17884
45153,Podoba,20.06236,51.53102
45248,Strupice,15.76917,50.91111
45264,Sochy,22.03792,50.61791
45357,Krasowa,19.22850,50.33447
45528,Wielkie,16.93631,52.40867
45543,Huta,21.38022,50.92893
45549,Nowa Wygoda,21.12606,52.25460
45568,Czarnobór,16.80074,53.17575
45631,Nowa Biała,19.64231,52.59083
45635,Ciernice,19.27472,50.30472
45641,Dworzysko,21.94402,50.06491
45644,Kłoski,16.27272,54.21326
45645,Mroczeń,15.05588,53.32348
45647,Nowy Świat,21.13526,51.39299
45682,Łekno,14.52252,53.44753
45791,Nagórze Południowe,21.23166,49.90952
45812,Korabniki,18.99974,52.69709
45821,Rogatka,14.61851,53.39690
45845,Michałów,19.69811,51.46126
45884,Paulinów,21.35535,50.93811
45966,Wilkowo,16.20722,54.16889
45987,Zając,19.21101,50.33090
46033,Karbowa,19.03005,50.24672
46062,Okszówek,23.49715,51.16129
46093,Mania,19.40752,51.77686
46101,Ulrychów,20.93632,52.23956
46135,Zalesie-Słowik,20.53670,50.83973
46198,Kozia Góra,21.10384,51.40307
46293,Troclik Prawy,19.03441,49.79506
46305,Gródki,19.27787,50.42215
46352,Zostawa,18.70625,50.04124
46386,Celuloza,19.08464,52.65675
46479,Raków,20.93583,52.19444
46482,Przedmieście Barnimowskie,15.05791,53.34659
46560,Boleradz,19.06672,50.34499
46584,Antonin,17.02606,52.41205
46626,Mańki-Wojdy,21.04411,52.34065
46693,Chwaliszewo,16.94170,52.40860
46698,Wesoła,19.95365,50.06259
46709,Nowy Kośminek,22.57152,51.22501
46763,Gnaszyn Górny,19.01875,50.78992
46802,Zapłocie Górne,18.99016,49.81296
46809,Denków,21.38009,50.92585
46827,Popielów,22.76479,49.79279
46968,Kalinowice Rządowe,23.27123,50.70091
46972,Roszkowice,20.70528,49.63972
46979,Przybyszówka Górna,21.92272,50.04290
46988,Marszewo,18.42317,54.52516
47037,Jędrzejewo,19.72485,52.56642
47116,Zimna Woda,19.35042,51.82460
47144,Starotoruńskie Przedmieście,18.51270,53.01818
47148,Glinki,20.66947,49.60723
47159,Piekary Rudne,18.87305,50.42499
47163,Semborówka,22.62495,51.25663
47193,Małyszyn Wielki,15.15821,52.73894
47309,Wyczerpy Dolne,19.15371,50.83639
47349,Płudy,20.97761,52.34106
47362,Góry-Nadleśnictwo,19.69246,52.55065
47369,Podłosie,19.16820,50.34915
47374,Budy Wielkie,22.77539,49.80466
47375,Głęboka,22.73638,49.79314
47411,Michałowo,17.02320,52.37189
47422,Stare Zawodzie,19.22507,50.27625
47464,Potok,21.03446,52.17821
47478,Moryca,19.68657,51.37363
47513,Bagno,19.06453,49.79133
47556,Wiskitno A-Las,19.56556,51.71750
47578,Majków-Kolonia,18.08344,51.77915
47589,Kleckie,20.65889,50.83000
47602,Stare Budy,22.07269,50.01863
47615,Kozia Górka,21.09647,52.25634
47622,Kolonia Wysockiego,19.06660,50.23699
47656,Legionowo,19.22764,50.32325
47658,Łoskoń,18.18333,53.18333
47719,Piaski,17.82848,51.67052
47751,Świercze,18.52521,50.05976
47760,Pod Staroniwą,21.96020,50.02594
47894,Żwaka,18.68594,50.06935
47940,Oruńskie Przedmieście,18.62783,54.32943
48068,Cieśnik,14.64417,53.37306
48096,Bernadowo,18.52179,54.46140
48169,Brzeziny Chwałowickie,18.55033,50.07483
48221,Bieliny,21.34088,50.94883
48299,Świerczów,19.73264,51.39243
48483,Grabańka,19.36282,50.22000
48617,Chałupki,20.12698,50.05397
48621,Mogiła,20.05085,50.06344
48679,Kryczówka,22.78464,49.77849
48818,Kolibki,18.56000,54.48000
48819,Niepiekło,19.18190,50.35454
48845,Jedlina,19.25455,50.36976
48861,Łaskowice,19.36884,51.71024
48904,Byki-Kolonia,19.70965,51.40210
48920,Czersko Polskie,18.08577,53.10926
48939,Mec,19.17614,50.29696
48942,Zajączkowo,18.48788,54.39798
48968,Szeląg,16.95281,52.43044
49000,Bronisin,19.52607,51.69936
49033,Stara Wola Gołębiowska,21.19959,51.43590
49053,Przybyszówka Dolna,21.94166,50.05250
49108,Kozice,16.32792,50.77265
49162,Wiśniewo,20.98207,52.32220
49215,Zagumnie,21.91824,50.00552
49224,Łazy,19.41312,50.34779
49259,Józefka,19.11707,50.85050
49327,Siedmiodomki,19.99762,51.54027
49345,Schaby,20.59061,50.90292
49375,Karolin,20.53044,53.80405
49424,Stawiska,19.10212,50.24963
49438,Kule,19.11853,50.81739
49484,Bacieczki-Kolonia,23.08910,53.14576
49542,Modrzew,20.22266,51.43441
49556,Meszcze,19.75000,51.43000
49559,Stare Miasto,21.13593,51.40160
49584,Składy,18.63906,54.37322
49641,Budy,21.90632,50.16127
49661,Jagodnica-Złotno,19.37061,51.77684
49698,Pnioki,18.93519,50.30957
49715,Ogrody,19.55285,52.49970
49758,Cezarówka Górna,19.33181,50.17598
49806,Świerczyna,19.31241,50.33562
49834,Bielany,19.28711,50.18019
49875,Krasnowola,20.99917,52.14278
49940,Świstanówka,22.49356,51.21820
49991,Borowiczki-Parcele,19.78513,52.52235
49992,Zapłocie Dolne,19.01032,49.82456
50012,Zwierzyniec,23.16401,53.11681
50085,Michałówek,20.03098,51.53472
50096,Dojlidy Fabryczne,23.20166,53.11695
50127,Wiktoryn,22.57361,51.26228
50131,Daszówka,19.65854,51.44078
50185,Orlinki,18.90030,54.34367
50248,Kawetczyzna,20.62543,50.84104
50251,Złota Góra,19.15346,50.81624
50253,Budy Duże,22.77526,49.80454
50255,Tomaszówka,23.54184,50.67549
50261,Bór,20.41655,50.99316
50267,Łączny Młyn,16.99713,52.39719
50403,Kolumny,19.55003,51.71221
50426,Stare Kamienice,17.82833,51.62167
50433,Góra,22.07451,50.34865
50436,Zdrowie,19.40635,51.76459
50446,Wilcze,22.79056,49.79472
50476,Brzeziny Wielkie,19.10454,50.74428
50478,Szyb Marcina,18.89856,50.29523
50490,Marianów,20.00608,51.26465
50515,Budy Dolne,19.70167,52.50278
50546,Lyszcze,18.85166,50.44018
50579,Przydziałki,18.22302,52.19843
50662,Pawłówek,18.25375,52.19503
50685,Wygoda,21.02542,52.20202
50720,Goduszyn,15.68151,50.89330
50730,Pogodno,16.86263,52.40177
50859,Podbucze,19.13698,50.77060
50892,Piotrowo,18.77173,54.09071
50945,Biskupia Górka,18.64340,54.34250
50958,Wydmuchowo,18.98888,52.66544
50990,Pruślin,17.86339,51.64310
51021,Źródło,19.30481,50.16154
51091,Kamień,19.11853,50.81739
51106,Bocian,20.02795,51.52514
51117,Józefowiec,18.54111,50.12667
51162,Wróżenice,20.19285,50.11289
51218,Żakowice,21.12970,51.37943
51219,Nadolnik,16.97205,52.42360
51239,Niewiadom Górny,18.46978,50.07603
51269,Mikuszowice Krakowskie,19.08174,49.78030
51312,Niepiekło,19.18190,50.35454
51316,Brama Oliwska,18.63998,54.36179
51380,Mokrzyca,15.03188,53.35416
51388,Ołowianka,18.66105,54.35258
51411,Rogownik,14.70917,53.39389
51462,Wyczółki,20.99815,52.15696
51463,Sierakowszczyzna,22.58306,51.26028
51572,Sobieszewska Pastwa,18.86991,54.32192
51579,Las,21.05098,52.12038
51592,Marysin,20.58198,51.39409
51598,Stare Tarnowice,18.81420,50.43798
51649,Ponikwica,19.31691,50.17472
51652,Bzie Zameckie,18.64430,49.93589
51671,Las Kapturski,21.13116,51.43404
51682,Stawki,21.94333,50.01528
51704,Jedwabna,19.09741,52.61082
51706,Skowronki,22.05207,53.18570
51712,Podzamcze,22.75991,49.78007
51753,Łaniewszczyzna,19.05565,52.64766
51769,Ostrowy,19.16167,52.30361
51808,Podłęże,21.97270,49.98453
51824,Śmieszek,18.71428,50.05179
51872,Kuźnia,21.37202,50.94307
51883,Kąty,19.30106,50.19977
51908,Stare Piekary,16.20375,51.22621
51961,Rupienica,18.02521,53.09610
51971,Herburtów,22.77850,49.75357
51993,Przeskok,17.96935,50.62798
52010,Brzustówka,21.18000,51.43000
52084,Dąbrówka,15.67869,50.85123
52135,Prątnica-Siedlisko,18.77411,54.09760
52216,Za Lasem,19.32691,50.15295
52280,Piaski,21.38614,50.92982
52305,Cytadela,21.00034,52.26459
52308,Malinów,16.91040,52.37040
52359,Kucelin,19.17741,50.77897
52362,Cieszyce,14.70889,53.41139
52393,Olesiówka,22.83408,49.78136
52433,Borki,19.09162,50.27722
52447,Sielec,22.81136,49.76744
52483,Kamień pod Rzędówką,18.59749,50.13939
52486,Kolonie Dudy,21.37155,50.94943
52563,Piwonice-Wschód,18.04195,51.74723
52579,Piaski,19.08007,52.64257
52622,Zdunowo,14.76662,53.38270
52650,Rzym,19.32588,50.21985
52664,Przy Szosie,19.06212,52.65690
52669,Pławo,22.06201,50.57368
52709,Wólka Węglowa,20.88196,52.29936
52731,Chełmki,16.26492,54.21203
52777,Osada Kolejowa,18.49796,54.53408
52860,Radziwie,19.70171,52.54226
52886,Zagórze,16.95011,52.40955
52898,Nowe Sady,19.43406,51.73886
52954,Lipie,21.75882,50.07123
52991,Główne Miasto,18.65374,54.35054
53034,Henryków,20.07317,51.59549
53041,Polanka Redłowska,18.55562,54.50113
53052,Stary Staw,19.29737,50.15464
53063,Cegielnia-Murcki,19.01944,50.20383
53067,Kaczanów,22.75543,49.79872
53102,Hubertów,20.48012,53.77842
53115,Podgórze,16.19112,54.17198
53174,Sokołów,20.15994,51.31925
53178,Kuźnica Pilska,16.74934,53.18748
53191,Tarnogaj,17.05984,51.08110
53290,Stawki,21.40906,50.94919
53399,Wrzosy,18.49583,50.08182
53459,Podbuczyny,19.25667,50.41004
53575,Biesaki,20.58389,50.85556
53600,Augustów,19.08282,51.29295
53614,Nowe Ogrody,18.63749,54.35211
53650,Krakowiec,18.74224,54.36106
53674,Ptaszniki,18.62823,54.32899
53677,Kokoszka,19.05827,52.65179
53702,Kuźniczki,18.60723,54.38478
53714,Szałasowizna,19.28071,50.30123
53716,Piasek,19.93189,50.06517
53732,Kolonia Przyszłość,19.10408,50.28626
53754,Okrągłe,19.27337,50.15694
53758,Firoga,18.48485,54.37916
53775,Salina,18.22751,52.79750
53782,Wzgórze Przemysława,17.00242,52.38944
53791,Paulinów,15.75261,50.89093
53809,Wilanów,19.53242,51.82748
53840,Bagnówka,23.21922,53.15102
53862,Kolonia Amandy,19.06203,50.24926
53868,Rewerenda,18.42746,54.46892
53873,Ogrody,22.28056,52.16528
53910,Koszarka,20.60392,50.86251
53914,Odolanowska Droga,17.79329,51.63983
53969,Zaborze,19.92100,50.01986
54015,Jarnołtów,16.84833,51.12000
54042,Starołęka Mała,16.94245,52.37053
54068,Rynek Wildecki,16.92036,52.39354
54087,Rotunda,23.24861,50.71289
54167,Skrzeczkowice,18.62611,50.01667
54170,Posanie,22.04661,50.60948
54233,Bonarka,19.94160,50.03494
54282,Pałcz,18.18153,53.16595
54288,Juliusz,19.23796,50.27127
54381,Kleszcz,19.74057,51.39976
54442,Zarzecze,15.05176,53.33834
54508,Smugi,19.20271,50.32822
54585,Cisówka,18.60000,49.91000
54597,Zdroje,16.70257,53.15464
54629,Halinów,21.10663,51.39203
54632,Zbójno,19.15378,53.00643
54667,Hajduki Wielkie,18.95329,50.27628
54832,Gzel,18.49117,50.12636
54964,Sahara,19.03776,52.64124
54995,Pod Racławówką,21.94111,50.00417
55003,Lasoki,18.63515,50.02311
55014,Sobieskie,19.27418,50.18511
55017,Szadok,18.97555,50.23845
55028,Rury Bonifraterskie,22.53444,51.22139
55120,Ostrów,18.65400,54.37100
55126,Kolonia Kolejowa,18.90185,50.30032
55194,Podgroble,23.24467,50.71664
55208,Glinice,19.13212,50.36099
55243,Brzeziny Śląskie,18.98530,50.35425
55268,Bartodzieje,18.04929,53.12639
55318,Nowy Port,20.03437,51.52402
55320,Huta Jagodnicka,19.34711,51.77417
55350,Obszary,19.05614,49.83964
55372,Czarna Huta,18.86952,50.46252
55406,Trzepowo,19.72544,52.58905
55536,Majdan,23.43669,51.13488
55542,Garaszewo,16.96439,52.35524
55598,Zagóźdź,21.17269,52.18040
55605,Kępa Latoszkowa,21.12887,52.14300
55606,Dolina Trzech Stawów,19.04461,50.24301
55615,Górne Gołąbkowice,20.74151,49.61602
55616,Niziny,16.85140,51.24937
55733,Rzeczki,21.38690,50.96348
55861,Antoniowiec,18.97279,50.33385
55870,Dębnik,19.37469,50.29854
55885,Gutwin,21.39305,50.96641
55959,Łan,20.62694,50.82583
55990,Belzatka,19.63000,51.40000
56032,Hałcnowska Kępa,19.08111,49.83909
56033,Chełmska Starówka,23.45460,51.13563
56095,Czerwonka,19.06919,52.64455
56171,Kawiłęg,16.16057,54.21104
56181,Marysin,19.67056,49.73333
56191,Rury Świętoduskie,22.56527,51.24904
56256,Żółtańce,23.42436,51.10805
56280,Miasto Kazimierzowskie,21.14350,51.40294
56290,Kędzierzyn,18.21394,50.35264
56331,Nowy Józefów,19.96167,51.68250
56412,Za Torami,22.78444,49.79805
56455,Nowy Dwór,18.64820,50.14599
56538,Okręglica,18.15161,51.74580
56672,Podwinie,22.76662,49.79906
56693,Rudnicze,16.85356,52.37348
56726,Dojlidy Dolne,23.20234,53.11056
56758,Olszak,17.00615,52.39514
56774,Malinowo,18.77885,54.10383
56798,Półwsie Zwierzynieckie,19.90703,50.06031
56876,Kaliszówka,20.93144,52.28771
56878,Krywlany,23.15863,53.10603
56926,Przeciszewko,16.15747,54.20278
56971,Chyły,22.04659,50.54955
56975,Błota,20.84515,52.25840
56985,Naramowickie Osiedle,16.94813,52.45078
57112,Zmudzona,18.11667,50.35000
57122,Stara Góra,20.64191,50.88806
57145,Winnica,18.64873,53.01826
57149,Łazy,20.59813,50.90677
57199,Chełmińskie Przedmieście,18.74028,53.46722
57202,Przedmieście Poznańskie,15.04025,53.33304
57206,Anna,19.31917,50.31714
57293,Kawie Góry,19.11853,50.81739
57305,Małe Nagórzyce,19.98870,51.49149
57307,Twardosławice,19.63322,51.42134
57358,Jędrzejów,19.51569,51.71230
57378,Wilków,18.27889,52.19361
57447,Chachuły,19.42090,51.71808
57554,Ostrowy Leśne,19.02604,52.60746
57630,Lasaki,18.11472,50.36944
57741,Brzeziny,18.57860,50.07666
57747,Wyspa Bolko,17.92398,50.65225
57781,Józefówka,21.35627,50.92351
57787,Kotuńska Droga,16.70183,53.13387
57831,Główieniec,17.03309,52.41145
57835,Babin,14.61358,53.50397
57918,Zapiecek,20.01902,51.52822
57929,Porąbki,21.98433,49.97308
57930,Kolonia Sławinek,22.51045,51.26569
57954,Wawok,18.53444,50.11056
57955,Lemszczyzna,22.57000,51.26111
58142,Ostrówek,21.38649,50.92767
58201,Bartodzieje Małe,18.03932,53.11373
58244,Solanki,18.24056,52.79528
58357,Szczygliczka,17.80032,51.67139
58363,Zielonka,22.75470,49.77029
58398,Dodatki,20.63361,50.82389
58411,Świech,19.03362,52.65074
58415,Karczemki Kiełpińskie,18.51472,54.34917
58443,Górka,21.97899,50.04795
58487,Kijewko,14.68991,53.37702
58562,Kaczka,20.03603,51.54960
58565,Piaski Starowiejskie,22.30417,52.17063
58582,Blachownia Śląska,18.28000,50.36000
58601,Raków Mały,19.70260,51.43454
58609,Glinianki,19.22960,50.43670
58651,Stara Huta,19.26958,50.19084
58652,Częstochówka - Parkitka,19.09274,50.82006
58662,Rembelin,22.07251,53.18320
58670,Piaski,20.63570,50.90186
58687,Szwajcaria,22.94755,54.13783
58697,Biały Ług,18.24551,50.34469
58726,Jerozolima,19.26083,50.21444
58826,Lisek,19.03675,52.65544
58852,Wisłoujście,18.67960,54.39545
58882,Młynki Stężyckie,21.83898,51.56726
58931,Swoły,22.08856,50.54466
58945,Zadębie Drugie,22.64212,51.24532
58956,Annopol,21.01795,52.30584
58984,Chrusty,20.67824,50.96945
58987,Rolandówka,19.98584,51.54152
59052,Wyczerpy Górne,19.18728,50.84172
59063,Grzybowa,21.17461,52.25021
59096,Olsza,16.18687,51.39806
59112,Świerczków,20.91116,50.01618
59139,Utrata,20.02587,51.50883
59172,Wysokie Góry,22.76965,49.76565
59264,Posłowice,20.56143,50.82860
59265,Rakowo,19.40941,54.17113
59295,Kalwaria,19.07231,49.78857
59332,Bederowiec,18.97966,50.27526
59333,Krzywe Błota,19.05800,52.63592
59380,Prędziszów,19.20983,50.80930
59444,Swojczyce,17.12187,51.11352
59446,Warszawskie,19.94398,50.07084
59568,Kowalszczyzna,19.51792,51.72621
59581,Sarzyno,16.18563,54.16595
59852,Stary Gaj,22.18731,51.25585
59884,Sadzawki,19.04633,50.29396
60023,Pietraszki,20.54125,50.86856
60063,Święty Roch,16.94835,52.39991
60074,Wielka Łąka,18.97056,49.76500
60108,Helenówek,19.42142,51.82943
60164,Rajsków-Kolonia,18.11887,51.74826
60260,Radostowa,20.65497,50.86270
60270,Kolonia Józefka,18.92705,50.37891
60314,Rudawka,18.97266,49.83468
60351,Błonie,22.28033,52.17108
60363,Przedmieście Lubelskie,23.24806,50.73944
60369,Kopystno,15.25403,52.74996
60409,Bzie Górne,18.66241,49.95256
60433,Młynek,19.56986,50.91708
60488,Zatwardzie,19.24460,50.25144
60506,Kobiałka,21.01667,52.35000
60532,Kawa,19.31897,50.31581
60554,Sudoły,22.09664,50.56097
60579,Górna Wieś,19.04861,49.84833
60590,Starków,14.63479,53.36710
60600,Miłakowo,16.18193,54.20631
60647,Liszka Górna,19.11853,50.81739
60681,Dzierżęcino,16.25278,54.17622
60695,Grodzkie,19.05242,52.67785
60712,Lipnik,18.55844,54.37869
60761,Psie Górki,20.63420,50.85826
60771,Gniezno-Pola,17.59361,52.52111
60775,Elsnerów,21.08223,52.27225
60791,Puferki,18.84136,50.46758
60829,Głęboczka,20.62592,50.88544
60898,Nowe Siedlice,15.27250,52.71861
60945,Długojów Górny,21.20590,51.38131
60952,Wzgórze Św. Maksymiliana,18.53550,54.50778
61086,Krykulec,18.49278,54.48694
61099,Koźle-Port,18.15419,50.34516
61135,Helenów,22.18881,51.68855
61198,Podbagienko,19.22912,50.38832
61240,Stare Moskule,19.52747,51.80797
61266,Strąkowiec,18.55460,50.12544
61276,Dziewoklicz,14.54436,53.37927
61289,Długojów-Kolonie,21.08376,51.41515
61306,Zagórzyno,16.22796,54.17694
61314,Średnia Wieś,19.00893,49.82769
61393,Niepaszyce,18.60703,50.33409
61483,Nikiszowiec,19.07083,50.24779
61500,Polanka,19.03482,52.60636
61519,Antonin,23.51168,51.13115
61532,Łęg,19.02739,52.69479
61554,Mirów,20.99580,52.23914
61562,Rakowiec,17.06898,51.09881
61567,Skałka,20.38246,50.85831
61634,Suszyn,18.13492,53.14521
61643,Biały Klasztor,20.39528,49.43556
61671,Chełpowo,19.68073,52.57126
61697,Łany,20.70209,49.61132
61816,Rubno Wielkie,19.39550,54.21466
61894,Żółwin,18.08414,53.09610
61920,Marczuk,23.11231,53.13404
61966,Górna Słocina,22.07067,50.02936
62006,Łęg,19.05991,50.35508
62028,Grabary,15.79690,50.90605
62039,Charzew,19.40612,51.71653
62042,Słowieńsko,14.51639,53.40972
62165,Częstocice,21.36435,50.92879
62283,Górna Wilda,16.92423,52.39615
62297,Szatan,20.55444,50.90028
62382,Grabówka,19.73612,52.52403
62386,Dzbenin,22.51479,51.27865
62396,Odolany,20.93930,52.22076
62458,Milęcin,19.03394,52.61532
62505,Krzywa Góra,18.98844,52.69058
62535,Nowa Kolonia,20.70417,49.60167
62699,Dojlidy-Kolonia,23.22934,53.08943
62762,Gołębiów-Wójtostwo,21.08376,51.41515
62798,Piekary,16.92790,52.40479
62820,Dawidy Poduchowne,20.99022,52.11277
62850,Górki,18.93432,53.74946
62872,Komorniki,19.87031,51.53700
62933,Suchy Kierz,19.16713,52.64469
62994,Piła Ujejska,19.23206,50.37040
63033,Wygoda,19.25502,50.15566
63054,Chwałkowice,17.86359,50.68286
63199,Kurak,19.46135,51.72825
63219,Lisikierz,16.78231,53.14883
63238,Budy,21.25606,50.24746
63282,Lisków,23.95306,50.50618
63298,Podbórz,14.54234,53.48682
63314,Tlenka,19.29945,50.24414
63316,Piątnica,16.16072,51.22130
63378,Brzezie-Tartak,18.97538,52.69129
63391,Zamość,21.11187,52.13320
63401,Różki,20.45063,51.40711
63433,Święta Helena,20.67537,49.62728
63485,Kępa Gocławska,21.06406,52.22510
63538,Dąbrówka,19.15314,52.49000
63557,Słowik-Willa,20.53465,50.83934
63565,Bydgoskie Przedmieście,16.79123,53.14520
63570,Studzieniczne,22.95366,54.15606
63578,Rózinowo-Parafia,19.00271,52.68519
63609,Podgórze-Leśniczówka,19.64484,52.53549
63815,Budki,19.68631,51.41760
63816,Głowica,18.54941,54.39707
63851,Wilanów,20.04203,51.54095
63854,Nowa Osada,23.27389,50.71139
63928,Mniszek,18.72522,53.43291
63933,Podgórze,18.87019,50.29351
63971,Strzeszynek,16.83537,52.44891
63973,Stare Ciechomice,19.69824,52.48632
63980,Dołki,19.00069,50.35495
63981,Zofiówka,21.35723,50.91900
64060,Szpetal Dolny,19.07587,52.67166
64063,Czarnów Rządowy,20.55456,50.88051
64078,Wypaleniska,19.39029,50.35251
64101,Nowy Rembertów,21.16473,52.25350
64124,Mleczna,21.17294,51.44746
64156,Czerniewice,16.12944,51.17333
64183,Falbanka,19.05059,52.63430
64204,Ludwików,21.39472,50.92417
64207,Lwowskie,22.81071,49.77738
64212,Krakówka,19.69712,51.40227
64255,Kozia Góra,19.03879,49.76803
64258,Grabówek,17.72400,51.07575
64284,Nowaszki,17.62237,52.50379
64349,Kamlarka,19.08628,52.64209
64360,Hajdowizna,19.13648,50.19355
64474,Stare Przedmieście,18.64737,54.34659
64508,Karniszewice,19.35473,51.66431
64529,Brzezie-Leśniczówka,18.95861,52.69375
64568,Mikołajew,19.22858,51.91867
64585,Prałkowce,22.72456,49.77377
64687,Kapitułka,19.03796,52.64565
64700,Kniewo,14.71556,53.41806
64781,Dąbrówka Grzybowska,20.98999,52.33222
64825,Odolany,14.55446,53.46935
64850,Kozi Lasek,20.67583,50.90500
64865,Majdan,23.29150,50.73778
64882,Reta Śmiłowicka,18.88425,50.19355
64928,Praga,21.07452,52.20556
65004,Brzeziny Małe,19.11228,50.76462
65086,Sączki,18.69842,54.37334
65189,Chruszczanka,22.49356,51.21820
65223,Piekiełko,20.97501,52.31222
65283,Zacisze,18.04842,53.11443
65356,Chropaczówka,19.24851,50.23605
65385,Taradajki,22.28537,52.15198
65422,Pod Podołami,20.71210,49.61770
65463,Malczew,21.16898,51.36282
65749,Polewki,19.05202,52.65651
65909,Zarwane,18.25657,52.78893
65930,Żabowo,16.18073,54.16929
65951,Załuski,20.94246,52.16035
65994,Królikarnia,21.02459,52.18850
66026,Kępa,20.04177,51.53145
66103,Kolonia Robotnicza,21.35616,50.95878
66130,Lwowska,23.46807,51.12378
66197,Jeziorki Byczyńskie,19.28768,50.18205
66232,Zadębie Pierwsze,22.63333,51.23333
66301,Czarna Wieś,19.91506,50.06436
66354,Lisianki,18.98888,52.66544
66356,Czechówka Górna,22.55416,51.27872
66364,Bartoszewice,17.11591,51.10340
66421,Sosnówka,16.75945,53.13619
66498,Naściszowa,20.72750,49.65000
66499,Kolonia,20.69889,49.60750
66557,Zalesie Drugie,20.52675,50.85343
66572,Trzy Norty,18.49074,54.38281
66599,Osiedle Letniskowe-Mniszek,18.71245,53.47257
66601,Małe Łagiewniki,19.45537,51.83366
66607,Mieczysław,18.95757,52.70551
66649,Świdrówka,21.93910,50.05036
66761,Cukrownia-Gosławice,18.25107,52.22303
66789,Buczynek,20.93879,52.32613
66807,Sielec,19.26430,50.17457
66884,Kolanowszczyzna,19.07565,52.64714
66928,Kazdębie,19.31363,50.33589
67023,Wąsosz,20.55011,50.84848
67142,Bajerówka,18.68574,50.02941
67196,Zakawie,19.33812,50.31583
67210,Moczydło,20.95129,52.24142
67213,Za Torem,19.06452,52.65226
67242,Tomaszówek,20.13457,51.45839
67254,Lublinek,19.36375,51.72681
67281,Płuczki,18.86871,50.44385
67386,Malchów,18.28556,50.39561
67404,Długojów,21.18762,51.38170
67425,Krępa,17.85351,51.65421
67454,Lipka,18.94500,50.40269
67459,Łężyn,18.25107,52.22303
67494,Nowy Młyn,17.01997,52.39912
67537,Rybaki,22.08805,53.17817
67552,Jaworzno-Jeziorki,19.31271,50.18695
67580,Wierzeje,19.73678,51.40526
67710,Białkowska Góra,22.58196,51.25153
67758,Gajówka Niemienice,23.06271,50.96703
67837,Stare Miasto,23.25030,50.71714
67855,Stanisławów,20.58102,50.90671
67950,Piaseczna,18.81767,50.47013
67953,Kalina,16.77211,53.15540
67986,Grodzisk,20.93598,52.21943
67990,Majków-Osiedle,18.07896,51.78194
67996,Długa Wieś,23.49126,50.46076
68056,Kantorowice,20.05658,50.10856
68178,Piaski,18.59310,52.99932
68193,Szatanówka,19.36972,50.35925
68213,Westerplatte,18.67251,54.40718
68253,Piaski,17.76658,52.48332
68262,Płonia Mała,18.72152,54.35085
68292,Zaporębie,20.64422,50.81678
68424,Tłuczykąt,18.84833,50.48785
68461,Chabka,21.99912,50.04119
68549,Lazarówka,18.86562,50.40531
68565,Nowe Siedlce,22.21095,52.17319
68668,Sulisławice,18.06837,51.71434
68672,Gajówka-Bór,21.87176,51.01823
68714,Karpaty,20.03058,51.53021
68816,Parcele Zacharzewskie,17.78268,51.65752
68854,Bielszczyzna,22.56354,51.25848
68862,Rury Wizytkowskie,22.49778,51.23472
68863,Cisowa,18.24551,50.38150
68866,Kawęczyn,21.14376,52.25477
68906,Kolonia Zuzanna,19.05133,50.23675
68979,Janowice Małe,23.22500,50.71278
69011,Wolwinów,23.51819,51.12531
69083,Glinki,21.02824,52.11356
69119,Witkowice,19.94702,50.10445
69134,Ludmiła,19.15286,50.26021
69151,Zagórze Dworskie,20.66333,50.86194
69155,Kierzków,21.07468,51.39401
69163,Trzy Lipki,19.01244,49.83499
69187,Spichlerze,18.65712,54.34572
69191,Czechów Dolny,22.52917,51.26083
69192,Podlesie,22.14610,50.20171
69193,Lisy,21.12639,52.13000
69289,Magenta,21.15891,52.27148
69294,Gnaszyn-Kawodrza,19.05000,50.80000
69396,Powązki,20.95306,52.25833
69419,Smochowice,16.83279,52.43748
69425,Niegłosy,19.72444,52.57222
69426,Tokary-Rąbież,19.71933,52.50134
69516,Halickie,23.23368,53.06895
69526,Huby,18.08311,51.73426
69561,Wolica,21.06352,52.20087
69602,Stara Wygoda,21.13417,52.24194
69626,Bugaj,19.73397,51.40912
69664,Sienno,14.56440,53.47293
69735,Ośnica,19.74282,52.52324
69788,Widok,14.63878,53.38191
69799,Różopole,20.99718,52.34838
69842,Biały Brzeg,19.22626,50.18396
69875,Sulisławice-Kolonia,18.04691,51.72216
69888,Kały,19.36667,51.81667
69898,Józefów,18.34042,51.27624
69923,Murowaniec,20.73167,49.62528
69998,Reforma,23.25059,50.71669
70046,Feliksin,19.60000,51.71000
70056,Kępa Parnicka,14.55472,53.41583
70082,Rakutówka,19.06745,52.64594
70086,Wypalanki,19.11201,50.77339
70160,Sosina,19.33717,50.24087
70184,Żerań,20.99944,52.31361
70199,Pilichonki,23.45436,51.14274
70265,Przylasek Rusiecki,20.15976,50.06032
70364,Koźmin,19.35372,50.17436
70379,Jalinka,23.57426,50.26855
70417,Papieżka,19.11184,52.65069
70457,Biskupie,22.64942,50.86350
70469,Nowe Moskule,19.41038,51.77320
70478,Biała Góra,16.99126,52.39359
70550,Błonia,18.70689,54.34984
70564,Szatonia,19.32504,51.81651
70574,Wypusty,22.98130,53.83122
70599,Wiktor,18.91371,50.35215
70626,Cieniawa,18.54690,54.37421
70646,Krzemieniec,22.75423,49.77295
70687,Kąty Grodziskie,21.05562,52.33265
70764,Nowiny Malczewskie,21.18957,51.35605
70787,Struga,14.66255,53.38325
70805,Bagienko,19.17239,50.15409
70821,Rozkosz,22.20000,52.11667
70867,Starosiedle,19.28333,50.36667
70871,Zofijka,19.05158,52.68027
70878,Trójpole,16.91568,52.43817
70933,Krówniki,22.82541,49.76710
71025,Łodzianka,19.51983,51.82362
71059,Wincentów,21.16934,51.46473
71087,Siedliczki,15.29627,52.69892
71109,Kazimierzówka,21.35947,50.92924
71277,Osiedle Słoneczne,19.03136,49.81498
71916,Nowy Kisielin,15.61479,51.93181
72689,Starówka,18.25403,52.21031
74281,Porąbka,19.42495,51.54780
74321,Cegielnia,20.69878,51.68214
74324,Przylesie,19.60868,51.73523
74347,Stara Wieś,20.91366,50.94264
74424,Bolesławów,19.61333,51.72423
74485,Łąki Henrykowskie,20.06333,51.54306
74486,Glinik,16.27852,50.72990
74536,Małyszyn Mały,15.16886,52.73993
74593,Popielarnia,19.57185,51.77734
74771,Stare Miasto,19.12676,50.81116
75114,Stokłosy,21.03306,52.15967
77123,Jany,15.60996,51.97302
80526,Łężyca,15.47664,51.99451
80863,Bielany,19.42666,54.19719
81816,Krasny Las,19.44752,54.21848
84298,Stare Miasto,16.16151,51.20905
84632,Krępa,15.53862,52.00086
84880,Zatonie,15.55896,51.86070
85552,Osiedle Beskidzkie,19.02096,49.80660
86269,Osiedle Kopernika,19.01489,49.81778
86947,Firlej,21.15985,51.45239
89344,Ochla,15.46777,51.87837
95149,Centrum,18.62777,50.40193
95938,Łabusz,16.17944,54.27276
96126,os. Wspólny Dom,16.19631,54.19015
96253,Śródmieście,18.83608,50.44415
96300,Piasta II,23.18290,53.12876
96693,Górne Przedmieście,19.02999,49.82067
97097,Ruda,18.85298,50.31379
97323,Stary Lubin,16.18392,51.39661
98065,Stary Kisielin,15.58259,51.93359
98670,Malenice,21.20358,51.37472
98887,Góry Skierdowskie,20.94444,52.36161
98977,Szczygieł,21.12394,51.39022
99035,Aleksandrów Trzeci,20.98476,52.26947
99037,Komorniki Rajeckie,21.22110,51.42728
99089,Aleksandrów Pierwszy,21.22861,52.17278
99164,Zawadka Morochowska,22.19412,49.45583
99244,Aleksandrów Drugi,20.92077,52.23306
99246,Gołębiewo,18.49418,54.44311
99401,Młyn-Wójtostwo,21.08376,51.41515
99556,Rudawka,20.97181,52.27027
99561,Bronisławów,21.21126,51.37256
99613,Wołtuszowa,21.84955,49.54794
99628,Pustyny,21.83392,49.65828
99746,Drewnik,19.44342,54.19841
99758,Augustów,21.04641,51.34685
99781,Firlej-Cegielnia,21.08376,51.41515
99817,Zajazd,19.44065,54.20442
99868,Szylówek,20.92077,52.23306
99870,Opacz-Parcela,20.92665,52.17108
100075,Dębice,19.45284,54.15909
100157,Stagnity,19.36449,54.19888
103138,Żabiniec,19.94345,50.08383
103250,Śródmieście Bielsko,19.04151,49.83399
103554,Zielona Dolina,16.74873,53.17251
103606,Wzgórze  Wolności,18.01577,53.11441
104024,Piasta I,23.19345,53.13339
104901,os. 650-lecia,19.38014,51.86061
117066,os. Karłowicza,22.55515,51.24670
119170,Kruhel Wielki,22.73961,49.76533
119627,Osiedle Wojska Polskiego,19.00709,49.81440
120197,Osiedle Tysiąclecia,18.96662,50.28125
123046,Dębe Wielkie,21.44277,52.19920
126939,Bronowice,19.86531,50.08332
137718,Pole Mokotowskie,21.00553,52.21190
137942,Osiedle Langiewicza,19.08356,49.80800
140576,Dąbrowa,18.27458,50.31873
140645,Żydowo,18.77759,52.52985
140653,Nowy Dwór,16.16722,51.17667
140660,Lipniki,16.14306,51.17833
140679,Dobrochy,16.26417,53.95556
140683,Grabina,18.02936,50.29412
140688,Zameczno,16.20504,51.38595
140691,Zabijaki,19.11270,52.65156
142198,os. Pogodna,22.59546,51.23351
146768,Centrum,16.93058,52.40773
148488,Śródmieście,19.11264,50.81121
155349,Centrum,19.18856,50.32591
156536,Rynek,17.03133,51.10945
159731,Lubieszyn,14.38628,53.45004
162098,Niebuszewo-Bolinko,14.55075,53.44538
162761,Św. Wojciech,18.63110,54.28357
163869,Śródmieście,22.00379,50.03778
170380,os. Zana,22.52725,51.23859
182463,Kolonia Mariacka,18.84155,50.36514
182491,Bełdów,16.19556,51.21861
182493,Szczawno,16.28147,50.82001
182636,Nowy Poniatów,16.30716,50.78026
182643,Koźlanki,16.15861,51.18139
182661,Karczemki Nynkowskie,18.53186,54.34620
182735,Ownia,16.85917,51.15722
182751,Bieśnik,16.16000,51.18389
182808,Rozłoga,16.25573,50.79108
182828,Maks,18.05454,54.27138
182895,Kamionek,16.28343,50.71613
183141,Opoka,16.26172,50.79412
183179,Wielogóra,16.15417,51.17500
183223,Sobieszewko,18.85413,54.33670
184807,Glinka-Osiedle,18.28389,52.22806
184866,Błonie,23.22591,50.71048
187298,Centrum,23.16864,53.12144
220356,Kamienny Potok,18.54947,54.45831
220397,Bukowe-Klęskowo,14.66593,53.36430
229799,Centrum,14.54819,53.43283
235853,Osiedle  Karpackie,19.03570,49.80257
241894,Jeleniów,15.46275,51.84901
244603,Międzyodrze-Wyspa Pucka,14.58306,53.40628
272605,Załom-Kasztanowe,14.73606,53.42850
284157,Kiełpin,15.50858,51.86642
294989,Sucha,15.59457,51.88222
300360,Jarogniewice,15.49315,51.83244
300362,Barcikowice,15.56112,51.84785
300364,Ługowo,15.62321,51.90123
300365,Zachód,14.49722,53.43964
300367,Północ,14.59024,53.49254
300369,Prawobrzeże,14.66901,53.42927
300371,Śródmieście,0.00000,0.00000
300373,Stare Miasto,0.00000,0.00000
300375,Os. Podwale,0.00000,0.00000
300377,Os. Podłęże,0.00000,0.00000
300379,Os. Pechnik,0.00000,0.00000
300381,Os. Pszczelnik,0.00000,0.00000
300383,Os. Chopina,0.00000,0.00000
300385,Os. Chrząstówka,0.00000,0.00000
300387,Os. Górnicze,0.00000,0.00000
300389,Os. Kościuszki,0.00000,0.00000
300391,Os. Leopold,0.00000,0.00000
300393,Os. Pańska Góra,0.00000,0.00000
300397,Os. Skałka,0.00000,0.00000
300399,Os. Warpie,0.00000,0.00000
300401,Kuźnica,18.58222,54.73361
300403,Głodówko,18.37222,54.50806
300405,Rogulewo,18.37222,54.50806
300406,Sławoszynko,18.19944,54.80833
300408,Przerębska Huta,18.40444,54.09611
300410,Borowa Wieś,18.81476,50.22639
300412,Filtry,20.99764,52.22192
300414,Stara Ochota,20.97525,52.21739
300416,Śródmieście Północne,21.00510,52.23628
300418,Śródmieście Południowe,21.01540,52.22241
300420,Stary Żoliborz,20.98908,52.26798
300422,Wrzeciono,20.94042,52.29259
300424,Huta,20.91553,52.29720
300426,Stare Bielany,20.95038,52.27809
300428,Targówek Fabryczny,21.07155,52.26353
300430,Targówek Mieszkaniowy,21.04700,52.27587
300432,Bródno-Podgrodzie,21.05250,52.29966
300434,Stary Imielin,21.02809,52.14633
300436,Szelągowizna,21.18441,52.20059
300438,Bartyki,21.11163,52.15613
300440,Morysin,21.09811,52.16858
300442,Nadwilanówka,21.11184,52.15920
300444,Nadwiślanka,21.11167,52.15715
300446,Stare Włochy,20.92490,52.20148
300448,Nowe Włochy,20.90078,52.21200
300450,Witolin,21.11041,52.23669
300452,Nowa Praga,21.03390,52.26151
300454,Stara Praga,21.03433,52.24754
300456,Stare Bałuty,19.44193,51.79253
300458,Stare Polesie,19.43950,51.76678
300460,Radiostacja,19.49056,51.77764
300462,Widzew-Wschód,19.53091,51.75276
300464,Śródmieście-Wschód,19.47309,51.77451
300466,Katedralna,19.46550,51.76224
300468,Manhattan,19.46043,51.75188
300470,Krowodrza Górka,19.92738,50.08712
300472,Zabłocie,19.98082,50.04675
300474,Stare Podgórze,19.94494,50.03928
300476,Stare Dębniki,19.92537,50.05045
300482,Łagiewniki-Borek Fałęcki,19.92794,50.01748
300496,Mistrzejowice Nowe,20.02356,50.09634
300498,Bieżanów-Prokocim,20.02350,50.01464
300500,Złocień,20.05397,50.02126
300502,Kozłówek,19.98273,50.01734
300504,Podgórze Duchackie,19.96447,50.01531
300508,Kopiec Krakusa,19.95867,50.03445
300510,Mateczny,19.93198,50.03456
300522,Bajkowe,16.84582,52.40687
300524,Ligota-Panewniki,18.95729,50.22609
300526,Stare Panewniki,18.90828,50.22719
300528,Brynów-Zgrzebnioka,19.03753,50.24681
300530,Zgrzebnioka,19.00543,50.23314
300532,Osiedle Paderewskiego - Muchowiec,18.99805,50.23138
300534,Wełnowiec-Józefowiec,19.01848,50.28285
300536,Pniaki,19.05666,50.27721
300538,Czekaj,19.06138,50.28755
300540,Norma,19.05949,50.27132
300542,Szopienice - Burowiec,19.09666,50.26665
300544,Janów - Nikiszowiec,19.06398,50.24923
300546,Piotrowice - Ochojec,18.98544,50.22214
300548,Malinówka,21.39167,51.88167
300550,Kolonia Boże Dary,18.98193,50.18990
300552,Kolonia Agnieszki,18.99982,50.26942
300554,Bagno,19.08267,50.26166
300556,Szabelnia,19.12704,50.25902
300558,Morawa,19.10232,50.26681
300560,Warszawa,20.44579,51.67549
300562,Akademickie,18.13378,53.14340
300564,Bajka,18.15077,53.14863
300566,Bohaterów,18.14365,53.15352
300568,Eskulapa,18.10932,53.15434
300570,Kasztelanka,18.16545,53.15511
300572,Niepodległości,18.16541,53.16670
300574,Powiśle,18.18871,53.16787
300576,Stary Fordon,18.17360,53.14909
300578,Szybowników,18.15249,53.15491
300580,Zawisza,18.01319,53.14379
300588,Górny Taras,18.00486,53.11917
300590,Babia Wieś,18.02632,53.11958
300592,Łęgnowo Wieś,18.12571,53.10145
300594,Sielskie,18.16004,53.14945
300596,Siernieczek,18.09876,53.12834
300598,Aniołki,18.63182,54.36331
300600,Migowo,18.57527,54.35168
300602,Piecki-Migowo,18.57750,54.35698
300604,Wyspa Sobieszewska,18.86281,54.34426
300606,Krakowiec-Górki Zachodnie,18.75065,54.36386
300610,Orunia-Św. Wojciech-Lipce,18.63361,54.29891
300612,Wzgórze Mickiewicza,18.61118,54.34375
300614,Ujeścisko-Łostowice,18.58281,54.32814
300616,Zgórsko,20.51534,50.82088
300618,Południe,19.03864,52.64131
300620,Os. Świętokrzyskie,20.65769,50.89049
300622,Przyczółek Grochowski,21.08007,52.23243
300624,Bujaków,18.80557,50.18596
300626,Dąbrowa,18.81604,50.22216
300628,Gniotek,18.92856,50.16188
300630,Goj,18.87719,50.18354
300632,Kąty,18.80449,50.19865
300634,Nowy Świat,18.88260,50.16793
300636,Rusinów,18.84260,50.19755
300638,Śmiłowice,18.86131,50.19771
300644,Strzyża,18.58344,54.38655
